{"type":"FeatureCollection","features":[{"type":"Feature","properties":{"name":"Victoria","kind":"city","tier":0},"geometry":{"type":"Point","coordinates":[-123.365,48.4283]}},{"type":"Feature","properties":{"name":"Strait of Georgia","kind":"strait","tier":0},"geometry":{"type":"Point","coordinates":[-123.965,49.3887]}},{"type":"Feature","properties":{"name":"Strait of Juan de Fuca","kind":"strait","tier":0},"geometry":{"type":"Point","coordinates":[-123.7077,48.3464]}},{"type":"Feature","properties":{"name":"Vancouver Island","kind":"island","tier":0},"geometry":{"type":"Point","coordinates":[-125.8488,49.5929]}},{"type":"Feature","properties":{"name":"Port Angeles","kind":"city","tier":1},"geometry":{"type":"Point","coordinates":[-123.4307,48.1181]}},{"type":"Feature","properties":{"name":"Sidney","kind":"city","tier":1},"geometry":{"type":"Point","coordinates":[-123.3983,48.6506]}},{"type":"Feature","properties":{"name":"Sooke","kind":"city","tier":1},"geometry":{"type":"Point","coordinates":[-123.7315,48.3826]}},{"type":"Feature","properties":{"name":"Boundary Pass","kind":"strait","tier":1},"geometry":{"type":"Point","coordinates":[-123.1365,48.7378]}},{"type":"Feature","properties":{"name":"Haro Strait","kind":"strait","tier":1},"geometry":{"type":"Point","coordinates":[-123.1852,48.5553]}},{"type":"Feature","properties":{"name":"Rosario Strait","kind":"strait","tier":1},"geometry":{"type":"Point","coordinates":[-122.7486,48.5826]}},{"type":"Feature","properties":{"name":"San Juan Channel","kind":"strait","tier":1},"geometry":{"type":"Point","coordinates":[-123.0594,48.5747]}},{"type":"Feature","properties":{"name":"Lopez Island","kind":"island","tier":1},"geometry":{"type":"Point","coordinates":[-122.8729,48.4955]}},{"type":"Feature","properties":{"name":"Orcas Island","kind":"island","tier":1},"geometry":{"type":"Point","coordinates":[-122.8863,48.6516]}},{"type":"Feature","properties":{"name":"Saltspring Island","kind":"island","tier":1},"geometry":{"type":"Point","coordinates":[-123.4825,48.8297]}},{"type":"Feature","properties":{"name":"San Juan Island","kind":"island","tier":1},"geometry":{"type":"Point","coordinates":[-123.0681,48.5371]}},{"type":"Feature","properties":{"name":"Eastsound","kind":"city","tier":2},"geometry":{"type":"Point","coordinates":[-122.9055,48.6968]}},{"type":"Feature","properties":{"name":"Friday Harbor","kind":"city","tier":2},"geometry":{"type":"Point","coordinates":[-123.0171,48.5343]}},{"type":"Feature","properties":{"name":"Lopez Village","kind":"city","tier":2},"geometry":{"type":"Point","coordinates":[-122.9146,48.5237]}},{"type":"Feature","properties":{"name":"Cayou Channel","kind":"strait","tier":2},"geometry":{"type":"Point","coordinates":[-122.9282,48.5892]}},{"type":"Feature","properties":{"name":"Colburne Passage","kind":"strait","tier":2},"geometry":{"type":"Point","coordinates":[-123.4032,48.6943]}},{"type":"Feature","properties":{"name":"Cordova Channel","kind":"strait","tier":2},"geometry":{"type":"Point","coordinates":[-123.3719,48.6003]}},{"type":"Feature","properties":{"name":"Inner Passage","kind":"strait","tier":2},"geometry":{"type":"Point","coordinates":[-122.9231,48.4389]}},{"type":"Feature","properties":{"name":"Miners Channel","kind":"strait","tier":2},"geometry":{"type":"Point","coordinates":[-123.3016,48.6231]}},{"type":"Feature","properties":{"name":"Moresby Passage","kind":"strait","tier":2},"geometry":{"type":"Point","coordinates":[-123.3458,48.7057]}},{"type":"Feature","properties":{"name":"Plumper Sound","kind":"strait","tier":2},"geometry":{"type":"Point","coordinates":[-123.2061,48.7845]}},{"type":"Feature","properties":{"name":"President Channel","kind":"strait","tier":2},"geometry":{"type":"Point","coordinates":[-123.0122,48.6702]}},{"type":"Feature","properties":{"name":"Prevost Passage","kind":"strait","tier":2},"geometry":{"type":"Point","coordinates":[-123.3045,48.6914]}},{"type":"Feature","properties":{"name":"Sansum Narrows","kind":"strait","tier":2},"geometry":{"type":"Point","coordinates":[-123.5685,48.7962]}},{"type":"Feature","properties":{"name":"Satellite Channel","kind":"strait","tier":2},"geometry":{"type":"Point","coordinates":[-123.4742,48.7327]}},{"type":"Feature","properties":{"name":"Shute Passage","kind":"strait","tier":2},"geometry":{"type":"Point","coordinates":[-123.3921,48.706]}},{"type":"Feature","properties":{"name":"Sidney Channel","kind":"strait","tier":2},"geometry":{"type":"Point","coordinates":[-123.3355,48.6126]}},{"type":"Feature","properties":{"name":"Spieden Channel","kind":"strait","tier":2},"geometry":{"type":"Point","coordinates":[-123.143,48.6319]}},{"type":"Feature","properties":{"name":"Swanson Channel","kind":"strait","tier":2},"geometry":{"type":"Point","coordinates":[-123.2993,48.77]}},{"type":"Feature","properties":{"name":"Upright Channel","kind":"strait","tier":2},"geometry":{"type":"Point","coordinates":[-122.9164,48.5611]}},{"type":"Feature","properties":{"name":"Wasp Passage","kind":"strait","tier":2},"geometry":{"type":"Point","coordinates":[-123.0001,48.5909]}},{"type":"Feature","properties":{"name":"Discovery Bay","kind":"bay","tier":2},"geometry":{"type":"Point","coordinates":[-122.8772,48.0495]}},{"type":"Feature","properties":{"name":"East Sound","kind":"bay","tier":2},"geometry":{"type":"Point","coordinates":[-122.8739,48.6421]}},{"type":"Feature","properties":{"name":"Lopez Sound","kind":"bay","tier":2},"geometry":{"type":"Point","coordinates":[-122.8577,48.5303]}},{"type":"Feature","properties":{"name":"Saanich Inlet","kind":"bay","tier":2},"geometry":{"type":"Point","coordinates":[-123.5026,48.6271]}},{"type":"Feature","properties":{"name":"Sooke Inlet","kind":"bay","tier":2},"geometry":{"type":"Point","coordinates":[-123.6844,48.3682]}},{"type":"Feature","properties":{"name":"Henry Island","kind":"island","tier":2},"geometry":{"type":"Point","coordinates":[-123.1865,48.6027]}},{"type":"Feature","properties":{"name":"North Pender Island","kind":"island","tier":2},"geometry":{"type":"Point","coordinates":[-123.2793,48.7791]}},{"type":"Feature","properties":{"name":"Shaw Island","kind":"island","tier":2},"geometry":{"type":"Point","coordinates":[-122.9599,48.571]}},{"type":"Feature","properties":{"name":"Sidney Island","kind":"island","tier":2},"geometry":{"type":"Point","coordinates":[-123.3074,48.6206]}},{"type":"Feature","properties":{"name":"South Pender Island","kind":"island","tier":2},"geometry":{"type":"Point","coordinates":[-123.2159,48.7497]}},{"type":"Feature","properties":{"name":"Stuart Island","kind":"island","tier":2},"geometry":{"type":"Point","coordinates":[-123.2003,48.6739]}},{"type":"Feature","properties":{"name":"Baynes Channel","kind":"strait","tier":3},"geometry":{"type":"Point","coordinates":[-123.2587,48.4433]}},{"type":"Feature","properties":{"name":"Byers Passage","kind":"strait","tier":3},"geometry":{"type":"Point","coordinates":[-123.3757,48.6699]}},{"type":"Feature","properties":{"name":"Eemdyk Passage","kind":"strait","tier":3},"geometry":{"type":"Point","coordinates":[-123.5503,48.3145]}},{"type":"Feature","properties":{"name":"Enterprise Channel","kind":"strait","tier":3},"geometry":{"type":"Point","coordinates":[-123.3039,48.4078]}},{"type":"Feature","properties":{"name":"Gorge Waterway","kind":"strait","tier":3},"geometry":{"type":"Point","coordinates":[-123.4056,48.4464]}},{"type":"Feature","properties":{"name":"Gosse Passage","kind":"strait","tier":3},"geometry":{"type":"Point","coordinates":[-123.4032,48.6998]}},{"type":"Feature","properties":{"name":"Hecate Passage","kind":"strait","tier":3},"geometry":{"type":"Point","coordinates":[-123.2572,48.4177]}},{"type":"Feature","properties":{"name":"Hughes Passage","kind":"strait","tier":3},"geometry":{"type":"Point","coordinates":[-123.2785,48.5807]}},{"type":"Feature","properties":{"name":"Iroquois Passage","kind":"strait","tier":3},"geometry":{"type":"Point","coordinates":[-123.3941,48.6836]}},{"type":"Feature","properties":{"name":"John Passage","kind":"strait","tier":3},"geometry":{"type":"Point","coordinates":[-123.3908,48.6858]}},{"type":"Feature","properties":{"name":"Johns Pass","kind":"strait","tier":3},"geometry":{"type":"Point","coordinates":[-123.1639,48.6688]}},{"type":"Feature","properties":{"name":"Mayor Channel","kind":"strait","tier":3},"geometry":{"type":"Point","coordinates":[-123.2826,48.4214]}},{"type":"Feature","properties":{"name":"Mosquito Pass","kind":"strait","tier":3},"geometry":{"type":"Point","coordinates":[-123.1723,48.5895]}},{"type":"Feature","properties":{"name":"Mouat Channel","kind":"strait","tier":3},"geometry":{"type":"Point","coordinates":[-123.287,48.4183]}},{"type":"Feature","properties":{"name":"New Channel","kind":"strait","tier":3},"geometry":{"type":"Point","coordinates":[-123.1321,48.6425]}},{"type":"Feature","properties":{"name":"North Pass","kind":"strait","tier":3},"geometry":{"type":"Point","coordinates":[-123.0167,48.6087]}},{"type":"Feature","properties":{"name":"Paddy Passage","kind":"strait","tier":3},"geometry":{"type":"Point","coordinates":[-123.4361,48.4421]}},{"type":"Feature","properties":{"name":"Page Passage","kind":"strait","tier":3},"geometry":{"type":"Point","coordinates":[-123.3957,48.6795]}},{"type":"Feature","properties":{"name":"Plumper Passage","kind":"strait","tier":3},"geometry":{"type":"Point","coordinates":[-123.2515,48.4235]}},{"type":"Feature","properties":{"name":"Pole Pass","kind":"strait","tier":3},"geometry":{"type":"Point","coordinates":[-122.9907,48.601]}},{"type":"Feature","properties":{"name":"Race Passage","kind":"strait","tier":3},"geometry":{"type":"Point","coordinates":[-123.5397,48.3075]}},{"type":"Feature","properties":{"name":"Salish Sea","kind":"strait","tier":3},"geometry":{"type":"Point","coordinates":[-123.1733,48.3568]}},{"type":"Feature","properties":{"name":"Spring Passage","kind":"strait","tier":3},"geometry":{"type":"Point","coordinates":[-123.0364,48.6197]}},{"type":"Feature","properties":{"name":"Squally Reach","kind":"strait","tier":3},"geometry":{"type":"Point","coordinates":[-123.5274,48.5557]}},{"type":"Feature","properties":{"name":"Stranger Passage","kind":"strait","tier":3},"geometry":{"type":"Point","coordinates":[-123.3929,48.699]}},{"type":"Feature","properties":{"name":"Becher Bay","kind":"bay","tier":3},"geometry":{"type":"Point","coordinates":[-123.6132,48.3286]}},{"type":"Feature","properties":{"name":"Bedwell Harbour","kind":"bay","tier":3},"geometry":{"type":"Point","coordinates":[-123.238,48.7477]}},{"type":"Feature","properties":{"name":"Cadboro Bay","kind":"bay","tier":3},"geometry":{"type":"Point","coordinates":[-123.2854,48.4488]}},{"type":"Feature","properties":{"name":"Cordova Bay","kind":"bay","tier":3},"geometry":{"type":"Point","coordinates":[-123.3405,48.5099]}},{"type":"Feature","properties":{"name":"Cowichan Bay","kind":"bay","tier":3},"geometry":{"type":"Point","coordinates":[-123.6076,48.7492]}},{"type":"Feature","properties":{"name":"Cowlitz Bay","kind":"bay","tier":3},"geometry":{"type":"Point","coordinates":[-123.0537,48.6877]}},{"type":"Feature","properties":{"name":"Deer Harbor","kind":"bay","tier":3},"geometry":{"type":"Point","coordinates":[-123.0042,48.6144]}},{"type":"Feature","properties":{"name":"Dungeness Bay","kind":"bay","tier":3},"geometry":{"type":"Point","coordinates":[-123.1435,48.1627]}},{"type":"Feature","properties":{"name":"Echo Bay","kind":"bay","tier":3},"geometry":{"type":"Point","coordinates":[-122.8943,48.7578]}},{"type":"Feature","properties":{"name":"Esquimalt Harbour","kind":"bay","tier":3},"geometry":{"type":"Point","coordinates":[-123.4445,48.4438]}},{"type":"Feature","properties":{"name":"Finlayson Arm","kind":"bay","tier":3},"geometry":{"type":"Point","coordinates":[-123.5465,48.52]}},{"type":"Feature","properties":{"name":"Fisherman Bay","kind":"bay","tier":3},"geometry":{"type":"Point","coordinates":[-122.9247,48.5115]}},{"type":"Feature","properties":{"name":"Freshwater Bay","kind":"bay","tier":3},"geometry":{"type":"Point","coordinates":[-123.5978,48.1429]}},{"type":"Feature","properties":{"name":"Friday Harbor","kind":"bay","tier":3},"geometry":{"type":"Point","coordinates":[-123.0041,48.5377]}},{"type":"Feature","properties":{"name":"Fulford Harbour","kind":"bay","tier":3},"geometry":{"type":"Point","coordinates":[-123.4242,48.7534]}},{"type":"Feature","properties":{"name":"Griffin Bay","kind":"bay","tier":3},"geometry":{"type":"Point","coordinates":[-122.9948,48.4892]}},{"type":"Feature","properties":{"name":"Orveas Bay","kind":"bay","tier":3},"geometry":{"type":"Point","coordinates":[-123.8719,48.3697]}},{"type":"Feature","properties":{"name":"Pedder Bay","kind":"bay","tier":3},"geometry":{"type":"Point","coordinates":[-123.5568,48.338]}},{"type":"Feature","properties":{"name":"Port Angeles Harbor","kind":"bay","tier":3},"geometry":{"type":"Point","coordinates":[-123.4327,48.1288]}},{"type":"Feature","properties":{"name":"Reid Harbor","kind":"bay","tier":3},"geometry":{"type":"Point","coordinates":[-123.1859,48.668]}},{"type":"Feature","properties":{"name":"Roche Harbor","kind":"bay","tier":3},"geometry":{"type":"Point","coordinates":[-123.1664,48.6094]}},{"type":"Feature","properties":{"name":"Rocky Bay","kind":"bay","tier":3},"geometry":{"type":"Point","coordinates":[-123.0923,48.6022]}},{"type":"Feature","properties":{"name":"Royal Roads","kind":"bay","tier":3},"geometry":{"type":"Point","coordinates":[-123.4495,48.4099]}},{"type":"Feature","properties":{"name":"West Sound","kind":"bay","tier":3},"geometry":{"type":"Point","coordinates":[-122.9688,48.6139]}},{"type":"Feature","properties":{"name":"Westcott Bay","kind":"bay","tier":3},"geometry":{"type":"Point","coordinates":[-123.1534,48.5986]}},{"type":"Feature","properties":{"name":"Chatham Islands","kind":"island","tier":3},"geometry":{"type":"Point","coordinates":[-123.2444,48.4368]}},{"type":"Feature","properties":{"name":"Coal Island","kind":"island","tier":3},"geometry":{"type":"Point","coordinates":[-123.3765,48.685]}},{"type":"Feature","properties":{"name":"Crane Island","kind":"island","tier":3},"geometry":{"type":"Point","coordinates":[-122.9982,48.5971]}},{"type":"Feature","properties":{"name":"Discovery Island","kind":"island","tier":3},"geometry":{"type":"Point","coordinates":[-123.2372,48.4246]}},{"type":"Feature","properties":{"name":"Gooch Island","kind":"island","tier":3},"geometry":{"type":"Point","coordinates":[-123.2907,48.6636]}},{"type":"Feature","properties":{"name":"James Island","kind":"island","tier":3},"geometry":{"type":"Point","coordinates":[-123.3562,48.6034]}},{"type":"Feature","properties":{"name":"Johns Island","kind":"island","tier":3},"geometry":{"type":"Point","coordinates":[-123.1492,48.6651]}},{"type":"Feature","properties":{"name":"Jones Island","kind":"island","tier":3},"geometry":{"type":"Point","coordinates":[-123.0464,48.6159]}},{"type":"Feature","properties":{"name":"Moresby Island","kind":"island","tier":3},"geometry":{"type":"Point","coordinates":[-123.3119,48.7155]}},{"type":"Feature","properties":{"name":"Piers Island","kind":"island","tier":3},"geometry":{"type":"Point","coordinates":[-123.4161,48.7051]}},{"type":"Feature","properties":{"name":"Portland Island","kind":"island","tier":3},"geometry":{"type":"Point","coordinates":[-123.3737,48.7264]}},{"type":"Feature","properties":{"name":"Protection Island","kind":"island","tier":3},"geometry":{"type":"Point","coordinates":[-122.9274,48.1257]}},{"type":"Feature","properties":{"name":"Spieden Island","kind":"island","tier":3},"geometry":{"type":"Point","coordinates":[-123.1352,48.641]}},{"type":"Feature","properties":{"name":"Sucia Island","kind":"island","tier":3},"geometry":{"type":"Point","coordinates":[-122.9021,48.7583]}},{"type":"Feature","properties":{"name":"ĆTESEU - D'Arcy Island","kind":"island","tier":3},"geometry":{"type":"Point","coordinates":[-123.2791,48.5658]}},{"type":"Feature","properties":{"name":"Agate Bay","kind":"bay","tier":4},"geometry":{"type":"Point","coordinates":[-123.7416,48.1623]}},{"type":"Feature","properties":{"name":"Aleck Bay","kind":"bay","tier":4},"geometry":{"type":"Point","coordinates":[-122.8529,48.4273]}},{"type":"Feature","properties":{"name":"All Bay","kind":"bay","tier":4},"geometry":{"type":"Point","coordinates":[-123.4094,48.6669]}},{"type":"Feature","properties":{"name":"Anderson Cove","kind":"bay","tier":4},"geometry":{"type":"Point","coordinates":[-123.6554,48.3618]}},{"type":"Feature","properties":{"name":"Andrews Bay","kind":"bay","tier":4},"geometry":{"type":"Point","coordinates":[-123.1639,48.5482]}},{"type":"Feature","properties":{"name":"Arbutus Cove","kind":"bay","tier":4},"geometry":{"type":"Point","coordinates":[-123.3017,48.4778]}},{"type":"Feature","properties":{"name":"Argyle Lagoon","kind":"bay","tier":4},"geometry":{"type":"Point","coordinates":[-123.0129,48.5199]}},{"type":"Feature","properties":{"name":"Barlow Bay","kind":"bay","tier":4},"geometry":{"type":"Point","coordinates":[-122.8722,48.4346]}},{"type":"Feature","properties":{"name":"Bazan Bay","kind":"bay","tier":4},"geometry":{"type":"Point","coordinates":[-123.4087,48.6293]}},{"type":"Feature","properties":{"name":"Blind Bay","kind":"bay","tier":4},"geometry":{"type":"Point","coordinates":[-122.9366,48.5797]}},{"type":"Feature","properties":{"name":"Blue Heron Basin","kind":"bay","tier":4},"geometry":{"type":"Point","coordinates":[-123.419,48.6733]}},{"type":"Feature","properties":{"name":"Brentwood Bay","kind":"bay","tier":4},"geometry":{"type":"Point","coordinates":[-123.4746,48.5751]}},{"type":"Feature","properties":{"name":"Bryden Bay","kind":"bay","tier":4},"geometry":{"type":"Point","coordinates":[-123.4067,48.6751]}},{"type":"Feature","properties":{"name":"Butchart Cove","kind":"bay","tier":4},"geometry":{"type":"Point","coordinates":[-123.4709,48.5685]}},{"type":"Feature","properties":{"name":"Camp Bay","kind":"bay","tier":4},"geometry":{"type":"Point","coordinates":[-123.1814,48.7432]}},{"type":"Feature","properties":{"name":"Campbell Cove","kind":"bay","tier":4},"geometry":{"type":"Point","coordinates":[-123.6322,48.3285]}},{"type":"Feature","properties":{"name":"Canned Cod Bay","kind":"bay","tier":4},"geometry":{"type":"Point","coordinates":[-123.1829,48.7391]}},{"type":"Feature","properties":{"name":"Canoe Bay","kind":"bay","tier":4},"geometry":{"type":"Point","coordinates":[-123.4016,48.6811]}},{"type":"Feature","properties":{"name":"Cascade Bay","kind":"bay","tier":4},"geometry":{"type":"Point","coordinates":[-122.8693,48.645]}},{"type":"Feature","properties":{"name":"Coles Bay","kind":"bay","tier":4},"geometry":{"type":"Point","coordinates":[-123.4715,48.6268]}},{"type":"Feature","properties":{"name":"Constance Cove","kind":"bay","tier":4},"geometry":{"type":"Point","coordinates":[-123.4312,48.4343]}},{"type":"Feature","properties":{"name":"Coon Hollow","kind":"bay","tier":4},"geometry":{"type":"Point","coordinates":[-122.8824,48.6805]}},{"type":"Feature","properties":{"name":"Cooper Cove","kind":"bay","tier":4},"geometry":{"type":"Point","coordinates":[-123.6552,48.3902]}},{"type":"Feature","properties":{"name":"Cottonwood Cove","kind":"bay","tier":4},"geometry":{"type":"Point","coordinates":[-123.1628,48.6703]}},{"type":"Feature","properties":{"name":"Crescent Bay","kind":"bay","tier":4},"geometry":{"type":"Point","coordinates":[-123.7167,48.1624]}},{"type":"Feature","properties":{"name":"Davis Bay","kind":"bay","tier":4},"geometry":{"type":"Point","coordinates":[-122.9253,48.4543]}},{"type":"Feature","properties":{"name":"Deadman Bay","kind":"bay","tier":4},"geometry":{"type":"Point","coordinates":[-123.1475,48.5117]}},{"type":"Feature","properties":{"name":"Deep Cove","kind":"bay","tier":4},"geometry":{"type":"Point","coordinates":[-123.4791,48.6843]}},{"type":"Feature","properties":{"name":"Dolphin Bay","kind":"bay","tier":4},"geometry":{"type":"Point","coordinates":[-122.8817,48.6342]}},{"type":"Feature","properties":{"name":"Drummond Bay","kind":"bay","tier":4},"geometry":{"type":"Point","coordinates":[-123.1909,48.7344]}},{"type":"Feature","properties":{"name":"Dunns Nook","kind":"bay","tier":4},"geometry":{"type":"Point","coordinates":[-123.4487,48.4406]}},{"type":"Feature","properties":{"name":"Eagle Cove","kind":"bay","tier":4},"geometry":{"type":"Point","coordinates":[-123.0124,48.6874]}},{"type":"Feature","properties":{"name":"Eagle's Cove","kind":"bay","tier":4},"geometry":{"type":"Point","coordinates":[-123.6826,48.1631]}},{"type":"Feature","properties":{"name":"Egeria Bay","kind":"bay","tier":4},"geometry":{"type":"Point","coordinates":[-123.2284,48.747]}},{"type":"Feature","properties":{"name":"Enterprise Bay","kind":"bay","tier":4},"geometry":{"type":"Point","coordinates":[-123.0771,48.4819]}},{"type":"Feature","properties":{"name":"Evans Cove","kind":"bay","tier":4},"geometry":{"type":"Point","coordinates":[-122.9779,48.6012]}},{"type":"Feature","properties":{"name":"False Bay","kind":"bay","tier":4},"geometry":{"type":"Point","coordinates":[-123.0694,48.4852]}},{"type":"Feature","properties":{"name":"Ferguson Cove","kind":"bay","tier":4},"geometry":{"type":"Point","coordinates":[-123.3917,48.6008]}},{"type":"Feature","properties":{"name":"Finnerty Cove","kind":"bay","tier":4},"geometry":{"type":"Point","coordinates":[-123.2975,48.4742]}},{"type":"Feature","properties":{"name":"Fish Creek","kind":"bay","tier":4},"geometry":{"type":"Point","coordinates":[-122.9675,48.4621]}},{"type":"Feature","properties":{"name":"Fishing Bay","kind":"bay","tier":4},"geometry":{"type":"Point","coordinates":[-122.911,48.6903]}},{"type":"Feature","properties":{"name":"Fleming Bay","kind":"bay","tier":4},"geometry":{"type":"Point","coordinates":[-123.4121,48.42]}},{"type":"Feature","properties":{"name":"Flotsam Cove","kind":"bay","tier":4},"geometry":{"type":"Point","coordinates":[-123.2928,48.4407]}},{"type":"Feature","properties":{"name":"Fossil Bay","kind":"bay","tier":4},"geometry":{"type":"Point","coordinates":[-122.8985,48.7502]}},{"type":"Feature","properties":{"name":"Frances’s Cove","kind":"bay","tier":4},"geometry":{"type":"Point","coordinates":[-123.0369,48.6885]}},{"type":"Feature","properties":{"name":"Funnel Cove","kind":"bay","tier":4},"geometry":{"type":"Point","coordinates":[-123.2915,48.4422]}},{"type":"Feature","properties":{"name":"Garrison Bay","kind":"bay","tier":4},"geometry":{"type":"Point","coordinates":[-123.1562,48.586]}},{"type":"Feature","properties":{"name":"Glencoe Cove","kind":"bay","tier":4},"geometry":{"type":"Point","coordinates":[-123.3018,48.486]}},{"type":"Feature","properties":{"name":"Gonzales Bay","kind":"bay","tier":4},"geometry":{"type":"Point","coordinates":[-123.3274,48.4098]}},{"type":"Feature","properties":{"name":"Grandma's Cove","kind":"bay","tier":4},"geometry":{"type":"Point","coordinates":[-123.0247,48.4582]}},{"type":"Feature","properties":{"name":"Grindstone Harbor","kind":"bay","tier":4},"geometry":{"type":"Point","coordinates":[-122.9044,48.5951]}},{"type":"Feature","properties":{"name":"Guthrie Cove","kind":"bay","tier":4},"geometry":{"type":"Point","coordinates":[-122.8842,48.5931]}},{"type":"Feature","properties":{"name":"Hicks Bay","kind":"bay","tier":4},"geometry":{"type":"Point","coordinates":[-122.9726,48.5528]}},{"type":"Feature","properties":{"name":"Hoffman Cove","kind":"bay","tier":4},"geometry":{"type":"Point","coordinates":[-122.9625,48.5506]}},{"type":"Feature","properties":{"name":"Horseshoe Bay","kind":"bay","tier":4},"geometry":{"type":"Point","coordinates":[-123.1668,48.5895]}},{"type":"Feature","properties":{"name":"Hudson Bay","kind":"bay","tier":4},"geometry":{"type":"Point","coordinates":[-122.9243,48.5857]}},{"type":"Feature","properties":{"name":"Hunter Bay","kind":"bay","tier":4},"geometry":{"type":"Point","coordinates":[-122.8539,48.4623]}},{"type":"Feature","properties":{"name":"Hutchinson Cove","kind":"bay","tier":4},"geometry":{"type":"Point","coordinates":[-123.6388,48.3874]}},{"type":"Feature","properties":{"name":"Indian Cove","kind":"bay","tier":4},"geometry":{"type":"Point","coordinates":[-122.9324,48.5612]}},{"type":"Feature","properties":{"name":"Inspiration Cove","kind":"bay","tier":4},"geometry":{"type":"Point","coordinates":[-123.4159,48.4217]}},{"type":"Feature","properties":{"name":"Iron Mine Bay","kind":"bay","tier":4},"geometry":{"type":"Point","coordinates":[-123.7035,48.3382]}},{"type":"Feature","properties":{"name":"James Bay","kind":"bay","tier":4},"geometry":{"type":"Point","coordinates":[-123.3717,48.422]}},{"type":"Feature","properties":{"name":"Jasper Cove","kind":"bay","tier":4},"geometry":{"type":"Point","coordinates":[-122.8555,48.4734]}},{"type":"Feature","properties":{"name":"Jensen Bay","kind":"bay","tier":4},"geometry":{"type":"Point","coordinates":[-123.0111,48.4854]}},{"type":"Feature","properties":{"name":"Jones Bay","kind":"bay","tier":4},"geometry":{"type":"Point","coordinates":[-122.8943,48.4481]}},{"type":"Feature","properties":{"name":"Judd Cove","kind":"bay","tier":4},"geometry":{"type":"Point","coordinates":[-122.9204,48.6848]}},{"type":"Feature","properties":{"name":"Kanaka Bay","kind":"bay","tier":4},"geometry":{"type":"Point","coordinates":[-123.0849,48.484]}},{"type":"Feature","properties":{"name":"Kansas Cove","kind":"bay","tier":4},"geometry":{"type":"Point","coordinates":[-122.9773,48.5297]}},{"type":"Feature","properties":{"name":"Lang Cove","kind":"bay","tier":4},"geometry":{"type":"Point","coordinates":[-123.4228,48.4335]}},{"type":"Feature","properties":{"name":"Lewis Bay","kind":"bay","tier":4},"geometry":{"type":"Point","coordinates":[-123.3848,48.6884]}},{"type":"Feature","properties":{"name":"Lightning Bay","kind":"bay","tier":4},"geometry":{"type":"Point","coordinates":[-123.2422,48.4372]}},{"type":"Feature","properties":{"name":"Lime Bay","kind":"bay","tier":4},"geometry":{"type":"Point","coordinates":[-123.3851,48.4282]}},{"type":"Feature","properties":{"name":"Limekiln Cove","kind":"bay","tier":4},"geometry":{"type":"Point","coordinates":[-123.4448,48.4529]}},{"type":"Feature","properties":{"name":"Lonesome Cove","kind":"bay","tier":4},"geometry":{"type":"Point","coordinates":[-123.1164,48.6215]}},{"type":"Feature","properties":{"name":"Loon Bay","kind":"bay","tier":4},"geometry":{"type":"Point","coordinates":[-123.2943,48.4504]}},{"type":"Feature","properties":{"name":"Lovers Cove","kind":"bay","tier":4},"geometry":{"type":"Point","coordinates":[-122.9885,48.6673]}},{"type":"Feature","properties":{"name":"Mackaye Harbor","kind":"bay","tier":4},"geometry":{"type":"Point","coordinates":[-122.8776,48.4411]}},{"type":"Feature","properties":{"name":"Mail Bay","kind":"bay","tier":4},"geometry":{"type":"Point","coordinates":[-123.0083,48.7004]}},{"type":"Feature","properties":{"name":"Margaret Bay","kind":"bay","tier":4},"geometry":{"type":"Point","coordinates":[-123.3117,48.4964]}},{"type":"Feature","properties":{"name":"Massacre Bay","kind":"bay","tier":4},"geometry":{"type":"Point","coordinates":[-122.981,48.6349]}},{"type":"Feature","properties":{"name":"Maynard Cove","kind":"bay","tier":4},"geometry":{"type":"Point","coordinates":[-123.2665,48.4516]}},{"type":"Feature","properties":{"name":"McKenzie Bight","kind":"bay","tier":4},"geometry":{"type":"Point","coordinates":[-123.5059,48.5542]}},{"type":"Feature","properties":{"name":"McNeill Bay","kind":"bay","tier":4},"geometry":{"type":"Point","coordinates":[-123.3123,48.4109]}},{"type":"Feature","properties":{"name":"Merrifield Cove","kind":"bay","tier":4},"geometry":{"type":"Point","coordinates":[-123.0199,48.5021]}},{"type":"Feature","properties":{"name":"Mill Bay","kind":"bay","tier":4},"geometry":{"type":"Point","coordinates":[-123.5498,48.6514]}},{"type":"Feature","properties":{"name":"Misery Bay","kind":"bay","tier":4},"geometry":{"type":"Point","coordinates":[-123.548,48.512]}},{"type":"Feature","properties":{"name":"Mitchell Bay","kind":"bay","tier":4},"geometry":{"type":"Point","coordinates":[-123.1621,48.5728]}},{"type":"Feature","properties":{"name":"Mosquito Bay","kind":"bay","tier":4},"geometry":{"type":"Point","coordinates":[-123.1764,48.5747]}},{"type":"Feature","properties":{"name":"Mud Bay","kind":"bay","tier":4},"geometry":{"type":"Point","coordinates":[-122.8398,48.4526]}},{"type":"Feature","properties":{"name":"Mulno Cove","kind":"bay","tier":4},"geometry":{"type":"Point","coordinates":[-123.0204,48.4943]}},{"type":"Feature","properties":{"name":"Murder Bay","kind":"bay","tier":4},"geometry":{"type":"Point","coordinates":[-123.6308,48.3343]}},{"type":"Feature","properties":{"name":"Mya Cove","kind":"bay","tier":4},"geometry":{"type":"Point","coordinates":[-122.9148,48.4542]}},{"type":"Feature","properties":{"name":"Nelson Bay","kind":"bay","tier":4},"geometry":{"type":"Point","coordinates":[-123.1803,48.6018]}},{"type":"Feature","properties":{"name":"North Bay","kind":"bay","tier":4},"geometry":{"type":"Point","coordinates":[-123.0088,48.5135]}},{"type":"Feature","properties":{"name":"Oak Bay","kind":"bay","tier":4},"geometry":{"type":"Point","coordinates":[-123.3014,48.431]}},{"type":"Feature","properties":{"name":"Open Bay","kind":"bay","tier":4},"geometry":{"type":"Point","coordinates":[-123.1886,48.59]}},{"type":"Feature","properties":{"name":"Otter Cove","kind":"bay","tier":4},"geometry":{"type":"Point","coordinates":[-123.005,48.7047]}},{"type":"Feature","properties":{"name":"Outer Bay","kind":"bay","tier":4},"geometry":{"type":"Point","coordinates":[-122.8833,48.4314]}},{"type":"Feature","properties":{"name":"Parker Bay","kind":"bay","tier":4},"geometry":{"type":"Point","coordinates":[-123.5409,48.3542]}},{"type":"Feature","properties":{"name":"Parks Bay","kind":"bay","tier":4},"geometry":{"type":"Point","coordinates":[-122.9801,48.5636]}},{"type":"Feature","properties":{"name":"Parry Bay","kind":"bay","tier":4},"geometry":{"type":"Point","coordinates":[-123.5298,48.3671]}},{"type":"Feature","properties":{"name":"Patricia Bay","kind":"bay","tier":4},"geometry":{"type":"Point","coordinates":[-123.458,48.6573]}},{"type":"Feature","properties":{"name":"Peter Cove","kind":"bay","tier":4},"geometry":{"type":"Point","coordinates":[-123.2335,48.7381]}},{"type":"Feature","properties":{"name":"Picnic Cove","kind":"bay","tier":4},"geometry":{"type":"Point","coordinates":[-122.9223,48.5645]}},{"type":"Feature","properties":{"name":"Pilgrim Cove","kind":"bay","tier":4},"geometry":{"type":"Point","coordinates":[-123.4238,48.4354]}},{"type":"Feature","properties":{"name":"Plumper Bay","kind":"bay","tier":4},"geometry":{"type":"Point","coordinates":[-123.4336,48.444]}},{"type":"Feature","properties":{"name":"Portage Inlet","kind":"bay","tier":4},"geometry":{"type":"Point","coordinates":[-123.422,48.4578]}},{"type":"Feature","properties":{"name":"Post Office Bay","kind":"bay","tier":4},"geometry":{"type":"Point","coordinates":[-122.9851,48.5692]}},{"type":"Feature","properties":{"name":"Prevost Harbor","kind":"bay","tier":4},"geometry":{"type":"Point","coordinates":[-123.192,48.68]}},{"type":"Feature","properties":{"name":"Price Bay","kind":"bay","tier":4},"geometry":{"type":"Point","coordinates":[-123.454,48.4573]}},{"type":"Feature","properties":{"name":"Princess Bay","kind":"bay","tier":4},"geometry":{"type":"Point","coordinates":[-123.3691,48.7193]}},{"type":"Feature","properties":{"name":"Puget Cove","kind":"bay","tier":4},"geometry":{"type":"Point","coordinates":[-123.246,48.4372]}},{"type":"Feature","properties":{"name":"Quarantine Cove","kind":"bay","tier":4},"geometry":{"type":"Point","coordinates":[-123.5362,48.3422]}},{"type":"Feature","properties":{"name":"Quarry Bay","kind":"bay","tier":4},"geometry":{"type":"Point","coordinates":[-123.5187,48.5643]}},{"type":"Feature","properties":{"name":"Reef Bay","kind":"bay","tier":4},"geometry":{"type":"Point","coordinates":[-123.1466,48.6653]}},{"type":"Feature","properties":{"name":"Reef Net Bay","kind":"bay","tier":4},"geometry":{"type":"Point","coordinates":[-122.9479,48.5601]}},{"type":"Feature","properties":{"name":"Roberts Bay","kind":"bay","tier":4},"geometry":{"type":"Point","coordinates":[-123.3984,48.6634]}},{"type":"Feature","properties":{"name":"Roche Cove","kind":"bay","tier":4},"geometry":{"type":"Point","coordinates":[-123.6301,48.3717]}},{"type":"Feature","properties":{"name":"Rock Bay","kind":"bay","tier":4},"geometry":{"type":"Point","coordinates":[-123.3701,48.4346]}},{"type":"Feature","properties":{"name":"Rose Bay","kind":"bay","tier":4},"geometry":{"type":"Point","coordinates":[-123.3968,48.4239]}},{"type":"Feature","properties":{"name":"Ross Bay","kind":"bay","tier":4},"geometry":{"type":"Point","coordinates":[-123.3426,48.4066]}},{"type":"Feature","properties":{"name":"Rowboat Cove","kind":"bay","tier":4},"geometry":{"type":"Point","coordinates":[-122.9273,48.4603]}},{"type":"Feature","properties":{"name":"Royal Cove","kind":"bay","tier":4},"geometry":{"type":"Point","coordinates":[-123.3716,48.7344]}},{"type":"Feature","properties":{"name":"Rudlin Bay","kind":"bay","tier":4},"geometry":{"type":"Point","coordinates":[-123.2334,48.4217]}},{"type":"Feature","properties":{"name":"Saanichton Bay","kind":"bay","tier":4},"geometry":{"type":"Point","coordinates":[-123.3823,48.5938]}},{"type":"Feature","properties":{"name":"Selkirk Water","kind":"bay","tier":4},"geometry":{"type":"Point","coordinates":[-123.382,48.4384]}},{"type":"Feature","properties":{"name":"Seversons Bay","kind":"bay","tier":4},"geometry":{"type":"Point","coordinates":[-123.03,48.7186]}},{"type":"Feature","properties":{"name":"Sheep Cove","kind":"bay","tier":4},"geometry":{"type":"Point","coordinates":[-123.2849,48.4534]}},{"type":"Feature","properties":{"name":"Ship Bay","kind":"bay","tier":4},"geometry":{"type":"Point","coordinates":[-122.893,48.6924]}},{"type":"Feature","properties":{"name":"Shoal Bay","kind":"bay","tier":4},"geometry":{"type":"Point","coordinates":[-122.8775,48.5623]}},{"type":"Feature","properties":{"name":"Smallpox Bay","kind":"bay","tier":4},"geometry":{"type":"Point","coordinates":[-123.1605,48.5405]}},{"type":"Feature","properties":{"name":"Smokehouse Bay","kind":"bay","tier":4},"geometry":{"type":"Point","coordinates":[-123.4905,48.5734]}},{"type":"Feature","properties":{"name":"Smugglers Cove","kind":"bay","tier":4},"geometry":{"type":"Point","coordinates":[-123.1757,48.5648]}},{"type":"Feature","properties":{"name":"Smugglers Nook","kind":"bay","tier":4},"geometry":{"type":"Point","coordinates":[-123.2378,48.7382]}},{"type":"Feature","properties":{"name":"Snoring Bay","kind":"bay","tier":4},"geometry":{"type":"Point","coordinates":[-122.8901,48.7491]}},{"type":"Feature","properties":{"name":"Sooke Bay","kind":"bay","tier":4},"geometry":{"type":"Point","coordinates":[-123.7701,48.3654]}},{"type":"Feature","properties":{"name":"Spoon Bay","kind":"bay","tier":4},"geometry":{"type":"Point","coordinates":[-123.2923,48.4472]}},{"type":"Feature","properties":{"name":"Starvation Bay","kind":"bay","tier":4},"geometry":{"type":"Point","coordinates":[-123.2404,48.7443]}},{"type":"Feature","properties":{"name":"Swartz Bay","kind":"bay","tier":4},"geometry":{"type":"Point","coordinates":[-123.4057,48.6877]}},{"type":"Feature","properties":{"name":"Swifts Bay","kind":"bay","tier":4},"geometry":{"type":"Point","coordinates":[-122.8689,48.5481]}},{"type":"Feature","properties":{"name":"Telegraph Bay","kind":"bay","tier":4},"geometry":{"type":"Point","coordinates":[-123.2798,48.4642]}},{"type":"Feature","properties":{"name":"Thetis Cove","kind":"bay","tier":4},"geometry":{"type":"Point","coordinates":[-123.4339,48.4489]}},{"type":"Feature","properties":{"name":"Third Lagoon","kind":"bay","tier":4},"geometry":{"type":"Point","coordinates":[-122.9757,48.4612]}},{"type":"Feature","properties":{"name":"Thomson Cove","kind":"bay","tier":4},"geometry":{"type":"Point","coordinates":[-123.4776,48.5997]}},{"type":"Feature","properties":{"name":"Thunder Cove","kind":"bay","tier":4},"geometry":{"type":"Point","coordinates":[-123.2326,48.4288]}},{"type":"Feature","properties":{"name":"Tod Inlet","kind":"bay","tier":4},"geometry":{"type":"Point","coordinates":[-123.4705,48.5655]}},{"type":"Feature","properties":{"name":"Tovey Bay","kind":"bay","tier":4},"geometry":{"type":"Point","coordinates":[-123.4479,48.4536]}},{"type":"Feature","properties":{"name":"Towner Bay","kind":"bay","tier":4},"geometry":{"type":"Point","coordinates":[-123.4747,48.6678]}},{"type":"Feature","properties":{"name":"Trader Bay","kind":"bay","tier":4},"geometry":{"type":"Point","coordinates":[-123.3978,48.6989]}},{"type":"Feature","properties":{"name":"Tsehum Harbour","kind":"bay","tier":4},"geometry":{"type":"Point","coordinates":[-123.4111,48.6743]}},{"type":"Feature","properties":{"name":"Vantreight Cove","kind":"bay","tier":4},"geometry":{"type":"Point","coordinates":[-123.3079,48.4958]}},{"type":"Feature","properties":{"name":"Victoria Inner Harbour - xʷsey̓’əm","kind":"bay","tier":4},"geometry":{"type":"Point","coordinates":[-123.3733,48.4255]}},{"type":"Feature","properties":{"name":"Victoria Middle Harbour","kind":"bay","tier":4},"geometry":{"type":"Point","coordinates":[-123.3821,48.4249]}},{"type":"Feature","properties":{"name":"Victoria Outer Harbour","kind":"bay","tier":4},"geometry":{"type":"Point","coordinates":[-123.397,48.4216]}},{"type":"Feature","properties":{"name":"Victoria Upper Harbour","kind":"bay","tier":4},"geometry":{"type":"Point","coordinates":[-123.3751,48.4317]}},{"type":"Feature","properties":{"name":"West Bay","kind":"bay","tier":4},"geometry":{"type":"Point","coordinates":[-123.3963,48.4272]}},{"type":"Feature","properties":{"name":"Whirl Bay","kind":"bay","tier":4},"geometry":{"type":"Point","coordinates":[-123.5739,48.3121]}},{"type":"Feature","properties":{"name":"White Beach Bay","kind":"bay","tier":4},"geometry":{"type":"Point","coordinates":[-122.9531,48.6252]}},{"type":"Feature","properties":{"name":"ḰENNES","kind":"bay","tier":4},"geometry":{"type":"Point","coordinates":[-123.4668,48.5897]}},{"type":"Feature","properties":{"name":"Aleck Rocks","kind":"island","tier":4},"geometry":{"type":"Point","coordinates":[-122.8499,48.4227]}},{"type":"Feature","properties":{"name":"Alegria Island","kind":"island","tier":4},"geometry":{"type":"Point","coordinates":[-122.9731,48.6044]}},{"type":"Feature","properties":{"name":"Alpha Islet","kind":"island","tier":4},"geometry":{"type":"Point","coordinates":[-123.2298,48.4342]}},{"type":"Feature","properties":{"name":"Arbutus Island","kind":"island","tier":4},"geometry":{"type":"Point","coordinates":[-123.4354,48.7061]}},{"type":"Feature","properties":{"name":"Arden Islet","kind":"island","tier":4},"geometry":{"type":"Point","coordinates":[-123.5996,48.3367]}},{"type":"Feature","properties":{"name":"Argyle Islet","kind":"island","tier":4},"geometry":{"type":"Point","coordinates":[-123.6021,48.3208]}},{"type":"Feature","properties":{"name":"Bare Island","kind":"island","tier":4},"geometry":{"type":"Point","coordinates":[-123.0145,48.7296]}},{"type":"Feature","properties":{"name":"Barren Island","kind":"island","tier":4},"geometry":{"type":"Point","coordinates":[-123.161,48.6227]}},{"type":"Feature","properties":{"name":"Battleship Island","kind":"island","tier":4},"geometry":{"type":"Point","coordinates":[-123.1854,48.6245]}},{"type":"Feature","properties":{"name":"Bedford Islands","kind":"island","tier":4},"geometry":{"type":"Point","coordinates":[-123.6035,48.3146]}},{"type":"Feature","properties":{"name":"Bell Island","kind":"island","tier":4},"geometry":{"type":"Point","coordinates":[-122.9807,48.5961]}},{"type":"Feature","properties":{"name":"Bentinck Island","kind":"island","tier":4},"geometry":{"type":"Point","coordinates":[-123.5432,48.3141]}},{"type":"Feature","properties":{"name":"Berens Island","kind":"island","tier":4},"geometry":{"type":"Point","coordinates":[-123.3933,48.4243]}},{"type":"Feature","properties":{"name":"Bird Rock","kind":"island","tier":4},"geometry":{"type":"Point","coordinates":[-123.0153,48.5978]}},{"type":"Feature","properties":{"name":"Blair Island","kind":"island","tier":4},"geometry":{"type":"Point","coordinates":[-123.3657,48.4149]}},{"type":"Feature","properties":{"name":"Blind Island","kind":"island","tier":4},"geometry":{"type":"Point","coordinates":[-122.937,48.5851]}},{"type":"Feature","properties":{"name":"Blunden Islet","kind":"island","tier":4},"geometry":{"type":"Point","coordinates":[-123.1683,48.7442]}},{"type":"Feature","properties":{"name":"Brackman Island","kind":"island","tier":4},"geometry":{"type":"Point","coordinates":[-123.3866,48.7189]}},{"type":"Feature","properties":{"name":"Brethour Island","kind":"island","tier":4},"geometry":{"type":"Point","coordinates":[-123.3194,48.6782]}},{"type":"Feature","properties":{"name":"Brinn Rock","kind":"island","tier":4},"geometry":{"type":"Point","coordinates":[-123.2226,48.4246]}},{"type":"Feature","properties":{"name":"Brothers Islands","kind":"island","tier":4},"geometry":{"type":"Point","coordinates":[-123.4325,48.4244]}},{"type":"Feature","properties":{"name":"Buck Island","kind":"island","tier":4},"geometry":{"type":"Point","coordinates":[-122.9215,48.4521]}},{"type":"Feature","properties":{"name":"Cactus Island","kind":"island","tier":4},"geometry":{"type":"Point","coordinates":[-123.1297,48.6492]}},{"type":"Feature","properties":{"name":"Cactus Islands","kind":"island","tier":4},"geometry":{"type":"Point","coordinates":[-123.1291,48.649]}},{"type":"Feature","properties":{"name":"Canoe Island","kind":"island","tier":4},"geometry":{"type":"Point","coordinates":[-122.9257,48.5576]}},{"type":"Feature","properties":{"name":"Cemetery Island","kind":"island","tier":4},"geometry":{"type":"Point","coordinates":[-123.1749,48.6642]}},{"type":"Feature","properties":{"name":"Chads Island","kind":"island","tier":4},"geometry":{"type":"Point","coordinates":[-123.3754,48.7356]}},{"type":"Feature","properties":{"name":"Chain Islets","kind":"island","tier":4},"geometry":{"type":"Point","coordinates":[-123.2687,48.421]}},{"type":"Feature","properties":{"name":"Charles Island","kind":"island","tier":4},"geometry":{"type":"Point","coordinates":[-122.9094,48.4425]}},{"type":"Feature","properties":{"name":"Church Island","kind":"island","tier":4},"geometry":{"type":"Point","coordinates":[-123.5882,48.308]}},{"type":"Feature","properties":{"name":"Cliff Island","kind":"island","tier":4},"geometry":{"type":"Point","coordinates":[-123.0145,48.5902]}},{"type":"Feature","properties":{"name":"Clive Island","kind":"island","tier":4},"geometry":{"type":"Point","coordinates":[-123.4057,48.7015]}},{"type":"Feature","properties":{"name":"Coffin Island","kind":"island","tier":4},"geometry":{"type":"Point","coordinates":[-123.3896,48.4278]}},{"type":"Feature","properties":{"name":"Cole Island","kind":"island","tier":4},"geometry":{"type":"Point","coordinates":[-123.4512,48.4536]}},{"type":"Feature","properties":{"name":"Colville Island","kind":"island","tier":4},"geometry":{"type":"Point","coordinates":[-123.3884,48.4269]}},{"type":"Feature","properties":{"name":"Comet Island","kind":"island","tier":4},"geometry":{"type":"Point","coordinates":[-123.2981,48.6696]}},{"type":"Feature","properties":{"name":"Coon Island","kind":"island","tier":4},"geometry":{"type":"Point","coordinates":[-123.0193,48.595]}},{"type":"Feature","properties":{"name":"Cub Islets","kind":"island","tier":4},"geometry":{"type":"Point","coordinates":[-123.6247,48.3304]}},{"type":"Feature","properties":{"name":"Daphne Islet","kind":"island","tier":4},"geometry":{"type":"Point","coordinates":[-123.4681,48.572]}},{"type":"Feature","properties":{"name":"Deadman Island","kind":"island","tier":4},"geometry":{"type":"Point","coordinates":[-122.9437,48.4581]}},{"type":"Feature","properties":{"name":"Dinner Island","kind":"island","tier":4},"geometry":{"type":"Point","coordinates":[-123.0097,48.5074]}},{"type":"Feature","properties":{"name":"Dock Island","kind":"island","tier":4},"geometry":{"type":"Point","coordinates":[-123.3576,48.6717]}},{"type":"Feature","properties":{"name":"Domville Island","kind":"island","tier":4},"geometry":{"type":"Point","coordinates":[-123.3204,48.6704]}},{"type":"Feature","properties":{"name":"Double Island","kind":"island","tier":4},"geometry":{"type":"Point","coordinates":[-122.9736,48.6075]}},{"type":"Feature","properties":{"name":"Duck Island","kind":"island","tier":4},"geometry":{"type":"Point","coordinates":[-123.3635,48.4127]}},{"type":"Feature","properties":{"name":"Dyer Rocks","kind":"island","tier":4},"geometry":{"type":"Point","coordinates":[-123.4799,48.626]}},{"type":"Feature","properties":{"name":"Eagle Islet","kind":"island","tier":4},"geometry":{"type":"Point","coordinates":[-123.3315,48.6267]}},{"type":"Feature","properties":{"name":"Emily Islet","kind":"island","tier":4},"geometry":{"type":"Point","coordinates":[-123.2933,48.4274]}},{"type":"Feature","properties":{"name":"Evans Rock","kind":"island","tier":4},"geometry":{"type":"Point","coordinates":[-123.2791,48.4482]}},{"type":"Feature","properties":{"name":"Fawn Island","kind":"island","tier":4},"geometry":{"type":"Point","coordinates":[-123.0069,48.6138]}},{"type":"Feature","properties":{"name":"Fernie Island","kind":"island","tier":4},"geometry":{"type":"Point","coordinates":[-123.3935,48.6799]}},{"type":"Feature","properties":{"name":"Fiddle Reef","kind":"island","tier":4},"geometry":{"type":"Point","coordinates":[-123.284,48.4294]}},{"type":"Feature","properties":{"name":"Flattop Island","kind":"island","tier":4},"geometry":{"type":"Point","coordinates":[-123.0827,48.6471]}},{"type":"Feature","properties":{"name":"Flower Island","kind":"island","tier":4},"geometry":{"type":"Point","coordinates":[-122.8542,48.545]}},{"type":"Feature","properties":{"name":"Forrest Island","kind":"island","tier":4},"geometry":{"type":"Point","coordinates":[-123.335,48.662]}},{"type":"Feature","properties":{"name":"Frazer Island","kind":"island","tier":4},"geometry":{"type":"Point","coordinates":[-123.6071,48.3277]}},{"type":"Feature","properties":{"name":"Freeman Island","kind":"island","tier":4},"geometry":{"type":"Point","coordinates":[-122.951,48.6989]}},{"type":"Feature","properties":{"name":"Geese Islets","kind":"island","tier":4},"geometry":{"type":"Point","coordinates":[-122.9187,48.4393]}},{"type":"Feature","properties":{"name":"Gillespie Island","kind":"island","tier":4},"geometry":{"type":"Point","coordinates":[-123.5997,48.3632]}},{"type":"Feature","properties":{"name":"Gillingham Islands","kind":"island","tier":4},"geometry":{"type":"Point","coordinates":[-123.4156,48.4196]}},{"type":"Feature","properties":{"name":"Goodridge Islands","kind":"island","tier":4},"geometry":{"type":"Point","coordinates":[-123.6507,48.3733]}},{"type":"Feature","properties":{"name":"Goose Island","kind":"island","tier":4},"geometry":{"type":"Point","coordinates":[-122.9571,48.4579]}},{"type":"Feature","properties":{"name":"Gossip Island","kind":"island","tier":4},"geometry":{"type":"Point","coordinates":[-123.1726,48.6631]}},{"type":"Feature","properties":{"name":"Gossip Islands","kind":"island","tier":4},"geometry":{"type":"Point","coordinates":[-123.1724,48.6626]}},{"type":"Feature","properties":{"name":"Goudge Island","kind":"island","tier":4},"geometry":{"type":"Point","coordinates":[-123.3928,48.6849]}},{"type":"Feature","properties":{"name":"Graham Rock","kind":"island","tier":4},"geometry":{"type":"Point","coordinates":[-123.392,48.6658]}},{"type":"Feature","properties":{"name":"Great Chain Island","kind":"island","tier":4},"geometry":{"type":"Point","coordinates":[-123.2754,48.4206]}},{"type":"Feature","properties":{"name":"Great Race Rock","kind":"island","tier":4},"geometry":{"type":"Point","coordinates":[-123.5315,48.2982]}},{"type":"Feature","properties":{"name":"Greig Island","kind":"island","tier":4},"geometry":{"type":"Point","coordinates":[-123.3393,48.6783]}},{"type":"Feature","properties":{"name":"Griffin Island","kind":"island","tier":4},"geometry":{"type":"Point","coordinates":[-123.235,48.4343]}},{"type":"Feature","properties":{"name":"Gull Rock","kind":"island","tier":4},"geometry":{"type":"Point","coordinates":[-123.0898,48.6511]}},{"type":"Feature","properties":{"name":"Guss Island","kind":"island","tier":4},"geometry":{"type":"Point","coordinates":[-123.1544,48.5849]}},{"type":"Feature","properties":{"name":"Halkett Island","kind":"island","tier":4},"geometry":{"type":"Point","coordinates":[-123.3813,48.4391]}},{"type":"Feature","properties":{"name":"Hall Island","kind":"island","tier":4},"geometry":{"type":"Point","coordinates":[-122.9118,48.435]}},{"type":"Feature","properties":{"name":"Happy Island","kind":"island","tier":4},"geometry":{"type":"Point","coordinates":[-123.1569,48.6654]}},{"type":"Feature","properties":{"name":"Harlock Islet","kind":"island","tier":4},"geometry":{"type":"Point","coordinates":[-123.3977,48.6787]}},{"type":"Feature","properties":{"name":"Harris Island","kind":"island","tier":4},"geometry":{"type":"Point","coordinates":[-123.2897,48.4233]}},{"type":"Feature","properties":{"name":"Harrison Island","kind":"island","tier":4},"geometry":{"type":"Point","coordinates":[-123.4023,48.4178]}},{"type":"Feature","properties":{"name":"Haystock Islets","kind":"island","tier":4},"geometry":{"type":"Point","coordinates":[-123.5051,48.3796]}},{"type":"Feature","properties":{"name":"Hood Island","kind":"island","tier":4},"geometry":{"type":"Point","coordinates":[-123.3726,48.7154]}},{"type":"Feature","properties":{"name":"Iceberg Island","kind":"island","tier":4},"geometry":{"type":"Point","coordinates":[-122.8895,48.4274]}},{"type":"Feature","properties":{"name":"Imrie Island","kind":"island","tier":4},"geometry":{"type":"Point","coordinates":[-123.3331,48.6945]}},{"type":"Feature","properties":{"name":"Indian Island","kind":"island","tier":4},"geometry":{"type":"Point","coordinates":[-122.9081,48.6925]}},{"type":"Feature","properties":{"name":"Inskip Islands","kind":"island","tier":4},"geometry":{"type":"Point","coordinates":[-123.4383,48.4428]}},{"type":"Feature","properties":{"name":"Iowa Rock","kind":"island","tier":4},"geometry":{"type":"Point","coordinates":[-122.8861,48.4184]}},{"type":"Feature","properties":{"name":"Isabella Island","kind":"island","tier":4},"geometry":{"type":"Point","coordinates":[-123.4307,48.729]}},{"type":"Feature","properties":{"name":"Jemmy Jones Island","kind":"island","tier":4},"geometry":{"type":"Point","coordinates":[-123.2728,48.4448]}},{"type":"Feature","properties":{"name":"John Parker Islands","kind":"island","tier":4},"geometry":{"type":"Point","coordinates":[-123.5938,48.3311]}},{"type":"Feature","properties":{"name":"Johnson Islet","kind":"island","tier":4},"geometry":{"type":"Point","coordinates":[-123.3956,48.6812]}},{"type":"Feature","properties":{"name":"Ker Island","kind":"island","tier":4},"geometry":{"type":"Point","coordinates":[-123.3733,48.6696]}},{"type":"Feature","properties":{"name":"Kitty Islet","kind":"island","tier":4},"geometry":{"type":"Point","coordinates":[-123.3071,48.4105]}},{"type":"Feature","properties":{"name":"Knapp Island","kind":"island","tier":4},"geometry":{"type":"Point","coordinates":[-123.3976,48.6988]}},{"type":"Feature","properties":{"name":"Kolb Island","kind":"island","tier":4},"geometry":{"type":"Point","coordinates":[-123.399,48.6805]}},{"type":"Feature","properties":{"name":"Lamb Island","kind":"island","tier":4},"geometry":{"type":"Point","coordinates":[-123.621,48.3303]}},{"type":"Feature","properties":{"name":"Large Bedford Island","kind":"island","tier":4},"geometry":{"type":"Point","coordinates":[-123.6005,48.3134]}},{"type":"Feature","properties":{"name":"Lewis Reef","kind":"island","tier":4},"geometry":{"type":"Point","coordinates":[-123.2798,48.4255]}},{"type":"Feature","properties":{"name":"Little Group","kind":"island","tier":4},"geometry":{"type":"Point","coordinates":[-123.3761,48.6686]}},{"type":"Feature","properties":{"name":"Little Shell Island","kind":"island","tier":4},"geometry":{"type":"Point","coordinates":[-123.3775,48.6701]}},{"type":"Feature","properties":{"name":"Little Skippy Island","kind":"island","tier":4},"geometry":{"type":"Point","coordinates":[-123.0298,48.733]}},{"type":"Feature","properties":{"name":"Long Island","kind":"island","tier":4},"geometry":{"type":"Point","coordinates":[-122.9227,48.4413]}},{"type":"Feature","properties":{"name":"Low Island","kind":"island","tier":4},"geometry":{"type":"Point","coordinates":[-123.1645,48.5434]}},{"type":"Feature","properties":{"name":"Mandarte Island","kind":"island","tier":4},"geometry":{"type":"Point","coordinates":[-123.2871,48.6337]}},{"type":"Feature","properties":{"name":"Mary Tod Island","kind":"island","tier":4},"geometry":{"type":"Point","coordinates":[-123.299,48.4277]}},{"type":"Feature","properties":{"name":"McCarthy Island","kind":"island","tier":4},"geometry":{"type":"Point","coordinates":[-123.4485,48.4469]}},{"type":"Feature","properties":{"name":"McConnell Island","kind":"island","tier":4},"geometry":{"type":"Point","coordinates":[-123.0223,48.5967]}},{"type":"Feature","properties":{"name":"McConnell Rocks","kind":"island","tier":4},"geometry":{"type":"Point","coordinates":[-123.0256,48.599]}},{"type":"Feature","properties":{"name":"McTavish Island","kind":"island","tier":4},"geometry":{"type":"Point","coordinates":[-123.3641,48.4151]}},{"type":"Feature","properties":{"name":"Mummy Rocks","kind":"island","tier":4},"geometry":{"type":"Point","coordinates":[-122.9296,48.4493]}},{"type":"Feature","properties":{"name":"Musclow Islet","kind":"island","tier":4},"geometry":{"type":"Point","coordinates":[-123.3972,48.6819]}},{"type":"Feature","properties":{"name":"Musgrave Island","kind":"island","tier":4},"geometry":{"type":"Point","coordinates":[-123.5438,48.7428]}},{"type":"Feature","properties":{"name":"Musgrave Rock","kind":"island","tier":4},"geometry":{"type":"Point","coordinates":[-123.5439,48.7428]}},{"type":"Feature","properties":{"name":"Nob Island","kind":"island","tier":4},"geometry":{"type":"Point","coordinates":[-123.0179,48.591]}},{"type":"Feature","properties":{"name":"North East Islets","kind":"island","tier":4},"geometry":{"type":"Point","coordinates":[-123.6045,48.3277]}},{"type":"Feature","properties":{"name":"North Race Rock","kind":"island","tier":4},"geometry":{"type":"Point","coordinates":[-123.5313,48.3037]}},{"type":"Feature","properties":{"name":"O'Neal Island","kind":"island","tier":4},"geometry":{"type":"Point","coordinates":[-123.0926,48.6038]}},{"type":"Feature","properties":{"name":"Oak Island","kind":"island","tier":4},"geometry":{"type":"Point","coordinates":[-122.9547,48.6078]}},{"type":"Feature","properties":{"name":"Patrol Island","kind":"island","tier":4},"geometry":{"type":"Point","coordinates":[-123.4258,48.7023]}},{"type":"Feature","properties":{"name":"Pearl Island","kind":"island","tier":4},"geometry":{"type":"Point","coordinates":[-123.165,48.6156]}},{"type":"Feature","properties":{"name":"Pellow Islets","kind":"island","tier":4},"geometry":{"type":"Point","coordinates":[-123.3577,48.7242]}},{"type":"Feature","properties":{"name":"Pelly Island","kind":"island","tier":4},"geometry":{"type":"Point","coordinates":[-123.3842,48.4257]}},{"type":"Feature","properties":{"name":"Picnic Island","kind":"island","tier":4},"geometry":{"type":"Point","coordinates":[-122.9583,48.6276]}},{"type":"Feature","properties":{"name":"Pole Island","kind":"island","tier":4},"geometry":{"type":"Point","coordinates":[-123.1681,48.6009]}},{"type":"Feature","properties":{"name":"Posey Island","kind":"island","tier":4},"geometry":{"type":"Point","coordinates":[-123.1675,48.6184]}},{"type":"Feature","properties":{"name":"Pym Island","kind":"island","tier":4},"geometry":{"type":"Point","coordinates":[-123.3894,48.6999]}},{"type":"Feature","properties":{"name":"Race Rocks","kind":"island","tier":4},"geometry":{"type":"Point","coordinates":[-123.5348,48.3003]}},{"type":"Feature","properties":{"name":"Reay Island","kind":"island","tier":4},"geometry":{"type":"Point","coordinates":[-123.3293,48.6836]}},{"type":"Feature","properties":{"name":"Reay Islet","kind":"island","tier":4},"geometry":{"type":"Point","coordinates":[-123.3286,48.6808]}},{"type":"Feature","properties":{"name":"Reef Island","kind":"island","tier":4},"geometry":{"type":"Point","coordinates":[-123.0163,48.6047]}},{"type":"Feature","properties":{"name":"Reef Point","kind":"island","tier":4},"geometry":{"type":"Point","coordinates":[-122.971,48.5278]}},{"type":"Feature","properties":{"name":"Repulse Rock","kind":"island","tier":4},"geometry":{"type":"Point","coordinates":[-123.5395,48.546]}},{"type":"Feature","properties":{"name":"Richards Island","kind":"island","tier":4},"geometry":{"type":"Point","coordinates":[-123.435,48.4482]}},{"type":"Feature","properties":{"name":"Richardson Rock","kind":"island","tier":4},"geometry":{"type":"Point","coordinates":[-122.9034,48.4473]}},{"type":"Feature","properties":{"name":"Ripple Island","kind":"island","tier":4},"geometry":{"type":"Point","coordinates":[-123.1309,48.657]}},{"type":"Feature","properties":{"name":"Rubly Island","kind":"island","tier":4},"geometry":{"type":"Point","coordinates":[-123.3128,48.6653]}},{"type":"Feature","properties":{"name":"Rum Island","kind":"island","tier":4},"geometry":{"type":"Point","coordinates":[-123.278,48.6628]}},{"type":"Feature","properties":{"name":"Russell Island","kind":"island","tier":4},"geometry":{"type":"Point","coordinates":[-123.4068,48.7482]}},{"type":"Feature","properties":{"name":"SISȻENEM / Halibut Island","kind":"island","tier":4},"geometry":{"type":"Point","coordinates":[-123.2734,48.6207]}},{"type":"Feature","properties":{"name":"Sallas Rocks","kind":"island","tier":4},"geometry":{"type":"Point","coordinates":[-123.2861,48.5848]}},{"type":"Feature","properties":{"name":"Satellite Island","kind":"island","tier":4},"geometry":{"type":"Point","coordinates":[-123.1912,48.6813]}},{"type":"Feature","properties":{"name":"Sawluctus Island","kind":"island","tier":4},"geometry":{"type":"Point","coordinates":[-123.5474,48.5032]}},{"type":"Feature","properties":{"name":"Secar Rock","kind":"island","tier":4},"geometry":{"type":"Point","coordinates":[-122.9072,48.4377]}},{"type":"Feature","properties":{"name":"Secretary (Donaldson) Island","kind":"island","tier":4},"geometry":{"type":"Point","coordinates":[-123.7073,48.333]}},{"type":"Feature","properties":{"name":"Senanus Island","kind":"island","tier":4},"geometry":{"type":"Point","coordinates":[-123.4859,48.5917]}},{"type":"Feature","properties":{"name":"Sentinel Island","kind":"island","tier":4},"geometry":{"type":"Point","coordinates":[-123.1504,48.6399]}},{"type":"Feature","properties":{"name":"Shag Rock","kind":"island","tier":4},"geometry":{"type":"Point","coordinates":[-122.8751,48.5915]}},{"type":"Feature","properties":{"name":"Sheep Island","kind":"island","tier":4},"geometry":{"type":"Point","coordinates":[-123.3279,48.6757]}},{"type":"Feature","properties":{"name":"Shelter Islands","kind":"island","tier":4},"geometry":{"type":"Point","coordinates":[-123.5683,48.3121]}},{"type":"Feature","properties":{"name":"Skipjack Island","kind":"island","tier":4},"geometry":{"type":"Point","coordinates":[-123.0358,48.7323]}},{"type":"Feature","properties":{"name":"Skull Island","kind":"island","tier":4},"geometry":{"type":"Point","coordinates":[-122.9861,48.6391]}},{"type":"Feature","properties":{"name":"Skull Rock","kind":"island","tier":4},"geometry":{"type":"Point","coordinates":[-122.9874,48.6393]}},{"type":"Feature","properties":{"name":"Small Island","kind":"island","tier":4},"geometry":{"type":"Point","coordinates":[-122.8633,48.4953]}},{"type":"Feature","properties":{"name":"Smart Island","kind":"island","tier":4},"geometry":{"type":"Point","coordinates":[-123.449,48.4477]}},{"type":"Feature","properties":{"name":"South Bedford Island","kind":"island","tier":4},"geometry":{"type":"Point","coordinates":[-123.6042,48.3125]}},{"type":"Feature","properties":{"name":"South East Islets","kind":"island","tier":4},"geometry":{"type":"Point","coordinates":[-123.6047,48.3258]}},{"type":"Feature","properties":{"name":"South Race Rock","kind":"island","tier":4},"geometry":{"type":"Point","coordinates":[-123.5301,48.2969]}},{"type":"Feature","properties":{"name":"South West Islets","kind":"island","tier":4},"geometry":{"type":"Point","coordinates":[-123.6101,48.3267]}},{"type":"Feature","properties":{"name":"Staines Island","kind":"island","tier":4},"geometry":{"type":"Point","coordinates":[-123.2832,48.4519]}},{"type":"Feature","properties":{"name":"Strongtide Islet","kind":"island","tier":4},"geometry":{"type":"Point","coordinates":[-123.2543,48.4417]}},{"type":"Feature","properties":{"name":"Sunken Rock","kind":"island","tier":4},"geometry":{"type":"Point","coordinates":[-123.1407,48.5034]}},{"type":"Feature","properties":{"name":"Swan Island","kind":"island","tier":4},"geometry":{"type":"Point","coordinates":[-123.3663,48.4133]}},{"type":"Feature","properties":{"name":"Swordfish Island","kind":"island","tier":4},"geometry":{"type":"Point","coordinates":[-123.5838,48.3099]}},{"type":"Feature","properties":{"name":"Tortoise Islets","kind":"island","tier":4},"geometry":{"type":"Point","coordinates":[-123.3676,48.7178]}},{"type":"Feature","properties":{"name":"Trial Islands","kind":"island","tier":4},"geometry":{"type":"Point","coordinates":[-123.3052,48.4004]}},{"type":"Feature","properties":{"name":"Turn Island","kind":"island","tier":4},"geometry":{"type":"Point","coordinates":[-122.9721,48.5332]}},{"type":"Feature","properties":{"name":"Tuzo Rock","kind":"island","tier":4},"geometry":{"type":"Point","coordinates":[-123.3749,48.4256]}},{"type":"Feature","properties":{"name":"Twin Rocks","kind":"island","tier":4},"geometry":{"type":"Point","coordinates":[-122.8649,48.6157]}},{"type":"Feature","properties":{"name":"Vantreight Island","kind":"island","tier":4},"geometry":{"type":"Point","coordinates":[-123.2545,48.4384]}},{"type":"Feature","properties":{"name":"Victim Island","kind":"island","tier":4},"geometry":{"type":"Point","coordinates":[-122.9752,48.6138]}},{"type":"Feature","properties":{"name":"Village Islands","kind":"island","tier":4},"geometry":{"type":"Point","coordinates":[-123.5987,48.3253]}},{"type":"Feature","properties":{"name":"Waldron Island","kind":"island","tier":4},"geometry":{"type":"Point","coordinates":[-123.0378,48.6992]}},{"type":"Feature","properties":{"name":"Walk Out","kind":"island","tier":4},"geometry":{"type":"Point","coordinates":[-122.8784,48.4285]}},{"type":"Feature","properties":{"name":"Warren Island","kind":"island","tier":4},"geometry":{"type":"Point","coordinates":[-123.3657,48.4146]}},{"type":"Feature","properties":{"name":"Wasp Islands","kind":"island","tier":4},"geometry":{"type":"Point","coordinates":[-123.0274,48.5948]}},{"type":"Feature","properties":{"name":"West Bedford Island","kind":"island","tier":4},"geometry":{"type":"Point","coordinates":[-123.607,48.3162]}},{"type":"Feature","properties":{"name":"West Race Rocks","kind":"island","tier":4},"geometry":{"type":"Point","coordinates":[-123.5372,48.2998]}},{"type":"Feature","properties":{"name":"Whale Rocks","kind":"island","tier":4},"geometry":{"type":"Point","coordinates":[-122.9424,48.447]}},{"type":"Feature","properties":{"name":"White Rock","kind":"island","tier":4},"geometry":{"type":"Point","coordinates":[-123.0716,48.6679]}},{"type":"Feature","properties":{"name":"Wolf Island","kind":"island","tier":4},"geometry":{"type":"Point","coordinates":[-123.6264,48.3324]}},{"type":"Feature","properties":{"name":"Work Island","kind":"island","tier":4},"geometry":{"type":"Point","coordinates":[-123.3945,48.4234]}},{"type":"Feature","properties":{"name":"Yellow Island","kind":"island","tier":4},"geometry":{"type":"Point","coordinates":[-123.0316,48.592]}},{"type":"Feature","properties":{"name":"Zero Rock","kind":"island","tier":4},"geometry":{"type":"Point","coordinates":[-123.2919,48.5236]}},{"type":"Feature","properties":{"name":"ĆTISU - Little D'Arcy Island","kind":"island","tier":4},"geometry":{"type":"Point","coordinates":[-123.267,48.5698]}},{"type":"Feature","properties":{"name":"Arachne Reef","kind":"bank","tier":4},"geometry":{"type":"Point","coordinates":[-123.2937,48.6847]}},{"type":"Feature","properties":{"name":"Brick Beach","kind":"bank","tier":4},"geometry":{"type":"Point","coordinates":[-123.3296,48.6351]}},{"type":"Feature","properties":{"name":"Brodie Rock","kind":"bank","tier":4},"geometry":{"type":"Point","coordinates":[-123.285,48.4034]}},{"type":"Feature","properties":{"name":"Brotchie Ledge","kind":"bank","tier":4},"geometry":{"type":"Point","coordinates":[-123.3882,48.4066]}},{"type":"Feature","properties":{"name":"Celia Reefs","kind":"bank","tier":4},"geometry":{"type":"Point","coordinates":[-123.3784,48.7132]}},{"type":"Feature","properties":{"name":"Center Reef","kind":"bank","tier":4},"geometry":{"type":"Point","coordinates":[-123.1616,48.6357]}},{"type":"Feature","properties":{"name":"Chesil Bank","kind":"bank","tier":4},"geometry":{"type":"Point","coordinates":[-123.3691,48.7423]}},{"type":"Feature","properties":{"name":"Coghlan Rock","kind":"bank","tier":4},"geometry":{"type":"Point","coordinates":[-123.478,48.3929]}},{"type":"Feature","properties":{"name":"Cooper Reef","kind":"bank","tier":4},"geometry":{"type":"Point","coordinates":[-123.2768,48.671]}},{"type":"Feature","properties":{"name":"Crescent Rock","kind":"bank","tier":4},"geometry":{"type":"Point","coordinates":[-123.7279,48.1691]}},{"type":"Feature","properties":{"name":"Danger Rock","kind":"bank","tier":4},"geometry":{"type":"Point","coordinates":[-123.0672,48.6638]}},{"type":"Feature","properties":{"name":"Entertainment Reef","kind":"bank","tier":4},"geometry":{"type":"Point","coordinates":[-123.0304,48.7327]}},{"type":"Feature","properties":{"name":"Fulford Reef","kind":"bank","tier":4},"geometry":{"type":"Point","coordinates":[-123.2402,48.4456]}},{"type":"Feature","properties":{"name":"Glimpse Reefs","kind":"bank","tier":4},"geometry":{"type":"Point","coordinates":[-123.3737,48.4071]}},{"type":"Feature","properties":{"name":"Gull Reef","kind":"bank","tier":4},"geometry":{"type":"Point","coordinates":[-123.1469,48.6547]}},{"type":"Feature","properties":{"name":"Joan Rock","kind":"bank","tier":4},"geometry":{"type":"Point","coordinates":[-123.319,48.6875]}},{"type":"Feature","properties":{"name":"Johnstone Reef","kind":"bank","tier":4},"geometry":{"type":"Point","coordinates":[-123.2717,48.4783]}},{"type":"Feature","properties":{"name":"Lee Rock","kind":"bank","tier":4},"geometry":{"type":"Point","coordinates":[-123.2886,48.4191]}},{"type":"Feature","properties":{"name":"Leo Reef","kind":"bank","tier":4},"geometry":{"type":"Point","coordinates":[-122.8558,48.553]}},{"type":"Feature","properties":{"name":"Mouat Reef","kind":"bank","tier":4},"geometry":{"type":"Point","coordinates":[-123.2983,48.4083]}},{"type":"Feature","properties":{"name":"Mouatt Reef","kind":"bank","tier":4},"geometry":{"type":"Point","coordinates":[-123.0464,48.6846]}},{"type":"Feature","properties":{"name":"Musgrave Rock","kind":"bank","tier":4},"geometry":{"type":"Point","coordinates":[-123.5482,48.7409]}},{"type":"Feature","properties":{"name":"North Cod Reef","kind":"bank","tier":4},"geometry":{"type":"Point","coordinates":[-123.3002,48.6576]}},{"type":"Feature","properties":{"name":"Parker Reef","kind":"bank","tier":4},"geometry":{"type":"Point","coordinates":[-122.8933,48.7258]}},{"type":"Feature","properties":{"name":"Patey Rock","kind":"bank","tier":4},"geometry":{"type":"Point","coordinates":[-123.52,48.7]}},{"type":"Feature","properties":{"name":"Peck Reef","kind":"bank","tier":4},"geometry":{"type":"Point","coordinates":[-123.4067,48.7064]}},{"type":"Feature","properties":{"name":"Robert's Rock","kind":"bank","tier":4},"geometry":{"type":"Point","coordinates":[-123.0168,48.463]}},{"type":"Feature","properties":{"name":"Rose Rock","kind":"bank","tier":4},"geometry":{"type":"Point","coordinates":[-123.3981,48.6824]}},{"type":"Feature","properties":{"name":"Scroggs Rocks","kind":"bank","tier":4},"geometry":{"type":"Point","coordinates":[-123.4388,48.4262]}},{"type":"Feature","properties":{"name":"Shag Reef","kind":"bank","tier":4},"geometry":{"type":"Point","coordinates":[-123.134,48.6541]}},{"type":"Feature","properties":{"name":"Shark Reef","kind":"bank","tier":4},"geometry":{"type":"Point","coordinates":[-122.9475,48.4759]}},{"type":"Feature","properties":{"name":"Shirt Tail Reef","kind":"bank","tier":4},"geometry":{"type":"Point","coordinates":[-123.0217,48.5876]}},{"type":"Feature","properties":{"name":"Shute Reef","kind":"bank","tier":4},"geometry":{"type":"Point","coordinates":[-123.4323,48.7101]}},{"type":"Feature","properties":{"name":"Sleeper Rock","kind":"bank","tier":4},"geometry":{"type":"Point","coordinates":[-123.3855,48.426]}},{"type":"Feature","properties":{"name":"South Cod Reef","kind":"bank","tier":4},"geometry":{"type":"Point","coordinates":[-123.3,48.6533]}},{"type":"Feature","properties":{"name":"Spencer Ledge","kind":"bank","tier":4},"geometry":{"type":"Point","coordinates":[-123.2605,48.4175]}},{"type":"Feature","properties":{"name":"Templar Rock","kind":"bank","tier":4},"geometry":{"type":"Point","coordinates":[-123.3283,48.4067]}},{"type":"Feature","properties":{"name":"Thames Shoal","kind":"bank","tier":4},"geometry":{"type":"Point","coordinates":[-123.2855,48.4174]}},{"type":"Feature","properties":{"name":"Thor Stone","kind":"bank","tier":4},"geometry":{"type":"Point","coordinates":[-123.1586,48.6694]}},{"type":"Feature","properties":{"name":"Tozier Rock","kind":"bank","tier":4},"geometry":{"type":"Point","coordinates":[-123.514,48.618]}},{"type":"Feature","properties":{"name":"Turn Rock","kind":"bank","tier":4},"geometry":{"type":"Point","coordinates":[-122.9646,48.5349]}},{"type":"Feature","properties":{"name":"Virtue Rock","kind":"bank","tier":4},"geometry":{"type":"Point","coordinates":[-123.2539,48.4178]}},{"type":"Feature","properties":{"name":"Whale Rock","kind":"bank","tier":4},"geometry":{"type":"Point","coordinates":[-123.4455,48.4434]}},{"type":"Feature","properties":{"name":"Seattle","kind":"city","tier":0},"geometry":{"type":"Point","coordinates":[-122.3301,47.6038]}},{"type":"Feature","properties":{"name":"Mercer Island","kind":"city","tier":2},"geometry":{"type":"Point","coordinates":[-122.2276,47.5766]}},{"type":"Feature","properties":{"name":"Ladysmith","kind":"city","tier":2},"geometry":{"type":"Point","coordinates":[-123.8158,48.9937]}},{"type":"Feature","properties":{"name":"Prince George","kind":"city","tier":1},"geometry":{"type":"Point","coordinates":[-122.7454,53.9129]}},{"type":"Feature","properties":{"name":"Port Edward","kind":"city","tier":3},"geometry":{"type":"Point","coordinates":[-130.2921,54.2246]}},{"type":"Feature","properties":{"name":"Tofino","kind":"city","tier":2},"geometry":{"type":"Point","coordinates":[-125.9048,49.1528]}},{"type":"Feature","properties":{"name":"Port Alberni","kind":"city","tier":1},"geometry":{"type":"Point","coordinates":[-124.8057,49.2344]}},{"type":"Feature","properties":{"name":"Puyallup","kind":"city","tier":2},"geometry":{"type":"Point","coordinates":[-122.2921,47.1849]}},{"type":"Feature","properties":{"name":"Fife","kind":"city","tier":2},"geometry":{"type":"Point","coordinates":[-122.3626,47.236]}},{"type":"Feature","properties":{"name":"Sumner","kind":"city","tier":2},"geometry":{"type":"Point","coordinates":[-122.2312,47.2062]}},{"type":"Feature","properties":{"name":"Fort Lewis","kind":"city","tier":2},"geometry":{"type":"Point","coordinates":[-122.555,47.1087]}},{"type":"Feature","properties":{"name":"Spanaway","kind":"city","tier":2},"geometry":{"type":"Point","coordinates":[-122.4243,47.0979]}},{"type":"Feature","properties":{"name":"South Hill","kind":"city","tier":2},"geometry":{"type":"Point","coordinates":[-122.2907,47.1211]}},{"type":"Feature","properties":{"name":"Steilacoom","kind":"city","tier":3},"geometry":{"type":"Point","coordinates":[-122.5963,47.1704]}},{"type":"Feature","properties":{"name":"Edgewood","kind":"city","tier":2},"geometry":{"type":"Point","coordinates":[-122.2844,47.2318]}},{"type":"Feature","properties":{"name":"Bonney Lake","kind":"city","tier":2},"geometry":{"type":"Point","coordinates":[-122.1702,47.187]}},{"type":"Feature","properties":{"name":"Gig Harbor","kind":"city","tier":2},"geometry":{"type":"Point","coordinates":[-122.5879,47.326]}},{"type":"Feature","properties":{"name":"Fox Island","kind":"city","tier":3},"geometry":{"type":"Point","coordinates":[-122.6172,47.2466]}},{"type":"Feature","properties":{"name":"Federal Way","kind":"city","tier":0},"geometry":{"type":"Point","coordinates":[-122.3393,47.3135]}},{"type":"Feature","properties":{"name":"Graham","kind":"city","tier":2},"geometry":{"type":"Point","coordinates":[-122.2786,47.0396]}},{"type":"Feature","properties":{"name":"Bellingham","kind":"city","tier":0},"geometry":{"type":"Point","coordinates":[-122.4788,48.7544]}},{"type":"Feature","properties":{"name":"Issaquah","kind":"city","tier":2},"geometry":{"type":"Point","coordinates":[-122.0433,47.5349]}},{"type":"Feature","properties":{"name":"Covington","kind":"city","tier":2},"geometry":{"type":"Point","coordinates":[-122.1002,47.3658]}},{"type":"Feature","properties":{"name":"Maple Valley","kind":"city","tier":2},"geometry":{"type":"Point","coordinates":[-122.0437,47.3664]}},{"type":"Feature","properties":{"name":"Kent","kind":"city","tier":0},"geometry":{"type":"Point","coordinates":[-122.227,47.3827]}},{"type":"Feature","properties":{"name":"Tukwila","kind":"city","tier":2},"geometry":{"type":"Point","coordinates":[-122.2559,47.4627]}},{"type":"Feature","properties":{"name":"Bellevue","kind":"city","tier":0},"geometry":{"type":"Point","coordinates":[-122.1923,47.6144]}},{"type":"Feature","properties":{"name":"Redmond","kind":"city","tier":2},"geometry":{"type":"Point","coordinates":[-122.1239,47.6694]}},{"type":"Feature","properties":{"name":"Everett","kind":"city","tier":0},"geometry":{"type":"Point","coordinates":[-122.2127,47.9793]}},{"type":"Feature","properties":{"name":"Kirkland","kind":"city","tier":2},"geometry":{"type":"Point","coordinates":[-122.2071,47.6765]}},{"type":"Feature","properties":{"name":"Sammamish","kind":"city","tier":2},"geometry":{"type":"Point","coordinates":[-122.0417,47.6018]}},{"type":"Feature","properties":{"name":"Esquimalt","kind":"city","tier":2},"geometry":{"type":"Point","coordinates":[-123.4136,48.43]}},{"type":"Feature","properties":{"name":"Shawnigan Lake","kind":"city","tier":3},"geometry":{"type":"Point","coordinates":[-123.623,48.6538]}},{"type":"Feature","properties":{"name":"Youbou","kind":"city","tier":3},"geometry":{"type":"Point","coordinates":[-124.1949,48.8728]}},{"type":"Feature","properties":{"name":"Port Renfrew","kind":"city","tier":3},"geometry":{"type":"Point","coordinates":[-124.4174,48.5503]}},{"type":"Feature","properties":{"name":"Langford","kind":"city","tier":1},"geometry":{"type":"Point","coordinates":[-123.5047,48.4498]}},{"type":"Feature","properties":{"name":"Ganges","kind":"city","tier":2},"geometry":{"type":"Point","coordinates":[-123.5067,48.855]}},{"type":"Feature","properties":{"name":"Mayne","kind":"city","tier":3},"geometry":{"type":"Point","coordinates":[-123.3,48.85]}},{"type":"Feature","properties":{"name":"Lake Cowichan","kind":"city","tier":2},"geometry":{"type":"Point","coordinates":[-124.0563,48.8259]}},{"type":"Feature","properties":{"name":"Cobble Hill","kind":"city","tier":3},"geometry":{"type":"Point","coordinates":[-123.6003,48.6837]}},{"type":"Feature","properties":{"name":"Metchosin","kind":"city","tier":3},"geometry":{"type":"Point","coordinates":[-123.5352,48.3796]}},{"type":"Feature","properties":{"name":"Hanceville","kind":"city","tier":2},"geometry":{"type":"Point","coordinates":[-123.0341,51.9172]}},{"type":"Feature","properties":{"name":"Roberts Creek","kind":"city","tier":3},"geometry":{"type":"Point","coordinates":[-123.6419,49.4213]}},{"type":"Feature","properties":{"name":"Pitt Meadows","kind":"city","tier":2},"geometry":{"type":"Point","coordinates":[-122.6902,49.2208]}},{"type":"Feature","properties":{"name":"Surf Inlet","kind":"city","tier":2},"geometry":{"type":"Point","coordinates":[-128.9,53.0333]}},{"type":"Feature","properties":{"name":"Hagensborg","kind":"city","tier":3},"geometry":{"type":"Point","coordinates":[-126.5021,52.3999]}},{"type":"Feature","properties":{"name":"Bella Coola","kind":"city","tier":2},"geometry":{"type":"Point","coordinates":[-126.7557,52.3723]}},{"type":"Feature","properties":{"name":"Alkali Lake","kind":"city","tier":3},"geometry":{"type":"Point","coordinates":[-122.2413,51.7873]}},{"type":"Feature","properties":{"name":"Kitimat","kind":"city","tier":1},"geometry":{"type":"Point","coordinates":[-128.6541,54.0536]}},{"type":"Feature","properties":{"name":"Duncan Bay","kind":"city","tier":3},"geometry":{"type":"Point","coordinates":[-125.2732,50.0644]}},{"type":"Feature","properties":{"name":"Vancouver","kind":"city","tier":0},"geometry":{"type":"Point","coordinates":[-123.114,49.2609]}},{"type":"Feature","properties":{"name":"Burnaby","kind":"city","tier":0},"geometry":{"type":"Point","coordinates":[-122.9725,49.2434]}},{"type":"Feature","properties":{"name":"Watson Island","kind":"city","tier":2},"geometry":{"type":"Point","coordinates":[-130.2949,54.2377]}},{"type":"Feature","properties":{"name":"Strathnaver","kind":"city","tier":2},"geometry":{"type":"Point","coordinates":[-122.5333,53.35]}},{"type":"Feature","properties":{"name":"Cumberland","kind":"city","tier":2},"geometry":{"type":"Point","coordinates":[-125.032,49.6185]}},{"type":"Feature","properties":{"name":"Quesnel","kind":"city","tier":1},"geometry":{"type":"Point","coordinates":[-122.4936,52.9794]}},{"type":"Feature","properties":{"name":"Isle Pierre","kind":"city","tier":2},"geometry":{"type":"Point","coordinates":[-123.2667,53.95]}},{"type":"Feature","properties":{"name":"Soda Creek","kind":"city","tier":2},"geometry":{"type":"Point","coordinates":[-122.2735,52.3292]}},{"type":"Feature","properties":{"name":"Springhouse","kind":"city","tier":2},"geometry":{"type":"Point","coordinates":[-122.1332,51.958]}},{"type":"Feature","properties":{"name":"Sayward","kind":"city","tier":3},"geometry":{"type":"Point","coordinates":[-125.9593,50.3781]}},{"type":"Feature","properties":{"name":"Parksville","kind":"city","tier":1},"geometry":{"type":"Point","coordinates":[-124.3117,49.318]}},{"type":"Feature","properties":{"name":"Rivers Inlet","kind":"city","tier":3},"geometry":{"type":"Point","coordinates":[-127.232,51.6804]}},{"type":"Feature","properties":{"name":"Haysport","kind":"city","tier":2},"geometry":{"type":"Point","coordinates":[-130.0167,54.1833]}},{"type":"Feature","properties":{"name":"Mud River","kind":"city","tier":2},"geometry":{"type":"Point","coordinates":[-123.05,53.7667]}},{"type":"Feature","properties":{"name":"Britannia Beach","kind":"city","tier":3},"geometry":{"type":"Point","coordinates":[-123.206,49.6264]}},{"type":"Feature","properties":{"name":"Sointula","kind":"city","tier":3},"geometry":{"type":"Point","coordinates":[-127.0167,50.6333]}},{"type":"Feature","properties":{"name":"Port Alice","kind":"city","tier":2},"geometry":{"type":"Point","coordinates":[-127.4881,50.4269]}},{"type":"Feature","properties":{"name":"Hunts Inlet","kind":"city","tier":2},"geometry":{"type":"Point","coordinates":[-130.45,54.0667]}},{"type":"Feature","properties":{"name":"Claxton","kind":"city","tier":2},"geometry":{"type":"Point","coordinates":[-130.1,54.0667]}},{"type":"Feature","properties":{"name":"Bella Bella","kind":"city","tier":2},"geometry":{"type":"Point","coordinates":[-128.1452,52.1626]}},{"type":"Feature","properties":{"name":"Quathiaski Cove","kind":"city","tier":3},"geometry":{"type":"Point","coordinates":[-125.21,50.0413]}},{"type":"Feature","properties":{"name":"Alexandria","kind":"city","tier":2},"geometry":{"type":"Point","coordinates":[-122.45,52.6333]}},{"type":"Feature","properties":{"name":"Port Essington","kind":"city","tier":2},"geometry":{"type":"Point","coordinates":[-129.9635,54.1592]}},{"type":"Feature","properties":{"name":"Macalister","kind":"city","tier":2},"geometry":{"type":"Point","coordinates":[-122.4167,52.45]}},{"type":"Feature","properties":{"name":"Ootsa Lake","kind":"city","tier":2},"geometry":{"type":"Point","coordinates":[-126.0333,53.7833]}},{"type":"Feature","properties":{"name":"Grassy Plains","kind":"city","tier":2},"geometry":{"type":"Point","coordinates":[-125.8833,53.95]}},{"type":"Feature","properties":{"name":"Namu","kind":"city","tier":2},"geometry":{"type":"Point","coordinates":[-127.8669,51.8608]}},{"type":"Feature","properties":{"name":"Bliss Landing","kind":"city","tier":3},"geometry":{"type":"Point","coordinates":[-124.817,50.0342]}},{"type":"Feature","properties":{"name":"Skidegate","kind":"city","tier":3},"geometry":{"type":"Point","coordinates":[-131.9934,53.2649]}},{"type":"Feature","properties":{"name":"Chief Lake","kind":"city","tier":2},"geometry":{"type":"Point","coordinates":[-123.0179,54.0984]}},{"type":"Feature","properties":{"name":"Hartley Bay","kind":"city","tier":2},"geometry":{"type":"Point","coordinates":[-129.2531,53.4257]}},{"type":"Feature","properties":{"name":"Lakelse","kind":"city","tier":2},"geometry":{"type":"Point","coordinates":[-128.55,54.3667]}},{"type":"Feature","properties":{"name":"Langley Township","kind":"city","tier":2},"geometry":{"type":"Point","coordinates":[-122.6593,49.1203]}},{"type":"Feature","properties":{"name":"Hilliers","kind":"city","tier":3},"geometry":{"type":"Point","coordinates":[-124.4833,49.3]}},{"type":"Feature","properties":{"name":"Fraser Lake","kind":"city","tier":2},"geometry":{"type":"Point","coordinates":[-124.844,54.0603]}},{"type":"Feature","properties":{"name":"Lily Lake","kind":"city","tier":2},"geometry":{"type":"Point","coordinates":[-124.5667,53.8833]}},{"type":"Feature","properties":{"name":"Gibsons","kind":"city","tier":2},"geometry":{"type":"Point","coordinates":[-123.5089,49.4006]}},{"type":"Feature","properties":{"name":"Tlell","kind":"city","tier":3},"geometry":{"type":"Point","coordinates":[-131.9334,53.5835]}},{"type":"Feature","properties":{"name":"Oona River","kind":"city","tier":3},"geometry":{"type":"Point","coordinates":[-130.2587,53.9479]}},{"type":"Feature","properties":{"name":"Summit Lake","kind":"city","tier":3},"geometry":{"type":"Point","coordinates":[-122.644,54.282]}},{"type":"Feature","properties":{"name":"Gold Bridge","kind":"city","tier":3},"geometry":{"type":"Point","coordinates":[-122.8405,50.8521]}},{"type":"Feature","properties":{"name":"Port Moody","kind":"city","tier":1},"geometry":{"type":"Point","coordinates":[-122.8294,49.2822]}},{"type":"Feature","properties":{"name":"Nazko","kind":"city","tier":3},"geometry":{"type":"Point","coordinates":[-123.5828,52.9426]}},{"type":"Feature","properties":{"name":"Bednesti","kind":"city","tier":2},"geometry":{"type":"Point","coordinates":[-123.0833,53.8667]}},{"type":"Feature","properties":{"name":"Whaletown","kind":"city","tier":3},"geometry":{"type":"Point","coordinates":[-125.0519,50.1065]}},{"type":"Feature","properties":{"name":"Fort St. James","kind":"city","tier":3},"geometry":{"type":"Point","coordinates":[-124.2597,54.4447]}},{"type":"Feature","properties":{"name":"Port Coquitlam","kind":"city","tier":1},"geometry":{"type":"Point","coordinates":[-122.7805,49.2622]}},{"type":"Feature","properties":{"name":"Nanaimo","kind":"city","tier":0},"geometry":{"type":"Point","coordinates":[-123.9381,49.1639]}},{"type":"Feature","properties":{"name":"Abbotsford","kind":"city","tier":0},"geometry":{"type":"Point","coordinates":[-122.3295,49.0521]}},{"type":"Feature","properties":{"name":"Gabriola","kind":"city","tier":2},"geometry":{"type":"Point","coordinates":[-123.8469,49.1747]}},{"type":"Feature","properties":{"name":"Extension","kind":"city","tier":3},"geometry":{"type":"Point","coordinates":[-123.9578,49.1001]}},{"type":"Feature","properties":{"name":"Salmon Valley","kind":"city","tier":2},"geometry":{"type":"Point","coordinates":[-122.6565,54.0944]}},{"type":"Feature","properties":{"name":"Anahim Lake","kind":"city","tier":3},"geometry":{"type":"Point","coordinates":[-125.3018,52.4619]}},{"type":"Feature","properties":{"name":"Van Anda","kind":"city","tier":3},"geometry":{"type":"Point","coordinates":[-124.5575,49.7582]}},{"type":"Feature","properties":{"name":"Williams Lake","kind":"city","tier":1},"geometry":{"type":"Point","coordinates":[-122.1397,52.1293]}},{"type":"Feature","properties":{"name":"Halfmoon Bay","kind":"city","tier":3},"geometry":{"type":"Point","coordinates":[-123.9096,49.5134]}},{"type":"Feature","properties":{"name":"Endako","kind":"city","tier":2},"geometry":{"type":"Point","coordinates":[-125.0236,54.0875]}},{"type":"Feature","properties":{"name":"Tahsis","kind":"city","tier":3},"geometry":{"type":"Point","coordinates":[-126.6635,49.9152]}},{"type":"Feature","properties":{"name":"Fort Fraser","kind":"city","tier":2},"geometry":{"type":"Point","coordinates":[-124.5561,54.0666]}},{"type":"Feature","properties":{"name":"Great Central","kind":"city","tier":3},"geometry":{"type":"Point","coordinates":[-124.9833,49.3167]}},{"type":"Feature","properties":{"name":"Blubber Bay","kind":"city","tier":3},"geometry":{"type":"Point","coordinates":[-124.622,49.7949]}},{"type":"Feature","properties":{"name":"Wistaria","kind":"city","tier":2},"geometry":{"type":"Point","coordinates":[-126.2833,53.8333]}},{"type":"Feature","properties":{"name":"Marilla","kind":"city","tier":2},"geometry":{"type":"Point","coordinates":[-125.8333,53.6833]}},{"type":"Feature","properties":{"name":"Ocean Falls","kind":"city","tier":3},"geometry":{"type":"Point","coordinates":[-127.6916,52.3529]}},{"type":"Feature","properties":{"name":"Alexis Creek","kind":"city","tier":3},"geometry":{"type":"Point","coordinates":[-123.277,52.0839]}},{"type":"Feature","properties":{"name":"Refuge Bay","kind":"city","tier":2},"geometry":{"type":"Point","coordinates":[-130.6,54.0167]}},{"type":"Feature","properties":{"name":"Hixon","kind":"city","tier":2},"geometry":{"type":"Point","coordinates":[-122.5819,53.4173]}},{"type":"Feature","properties":{"name":"Metlakatla","kind":"city","tier":2},"geometry":{"type":"Point","coordinates":[-130.4445,54.3374]}},{"type":"Feature","properties":{"name":"Willow River","kind":"city","tier":3},"geometry":{"type":"Point","coordinates":[-122.4734,54.0746]}},{"type":"Feature","properties":{"name":"Punchaw","kind":"city","tier":2},"geometry":{"type":"Point","coordinates":[-123.208,53.4505]}},{"type":"Feature","properties":{"name":"Qualicum Beach","kind":"city","tier":2},"geometry":{"type":"Point","coordinates":[-124.4439,49.348]}},{"type":"Feature","properties":{"name":"Klemtu","kind":"city","tier":2},"geometry":{"type":"Point","coordinates":[-128.5208,52.588]}},{"type":"Feature","properties":{"name":"Beaverley","kind":"city","tier":2},"geometry":{"type":"Point","coordinates":[-122.8667,53.8167]}},{"type":"Feature","properties":{"name":"West Vancouver","kind":"city","tier":1},"geometry":{"type":"Point","coordinates":[-123.1595,49.3311]}},{"type":"Feature","properties":{"name":"East Port Orchard","kind":"city","tier":3},"geometry":{"type":"Point","coordinates":[-122.6193,47.5191]}},{"type":"Feature","properties":{"name":"Erlands Point-Kitsap Lake","kind":"city","tier":3},"geometry":{"type":"Point","coordinates":[-122.7077,47.5913]}},{"type":"Feature","properties":{"name":"Indianola","kind":"city","tier":3},"geometry":{"type":"Point","coordinates":[-122.5228,47.7514]}},{"type":"Feature","properties":{"name":"Kingston","kind":"city","tier":2},"geometry":{"type":"Point","coordinates":[-122.4991,47.7988]}},{"type":"Feature","properties":{"name":"Manchester","kind":"city","tier":3},"geometry":{"type":"Point","coordinates":[-122.55,47.5523]}},{"type":"Feature","properties":{"name":"Parkwood","kind":"city","tier":3},"geometry":{"type":"Point","coordinates":[-122.6026,47.528]}},{"type":"Feature","properties":{"name":"Port Orchard","kind":"city","tier":2},"geometry":{"type":"Point","coordinates":[-122.6384,47.5316]}},{"type":"Feature","properties":{"name":"Poulsbo","kind":"city","tier":2},"geometry":{"type":"Point","coordinates":[-122.6393,47.7391]}},{"type":"Feature","properties":{"name":"Silverdale","kind":"city","tier":2},"geometry":{"type":"Point","coordinates":[-122.6766,47.6594]}},{"type":"Feature","properties":{"name":"Suquamish","kind":"city","tier":3},"geometry":{"type":"Point","coordinates":[-122.553,47.7301]}},{"type":"Feature","properties":{"name":"Tracyton","kind":"city","tier":3},"geometry":{"type":"Point","coordinates":[-122.651,47.6117]}},{"type":"Feature","properties":{"name":"Lacey","kind":"city","tier":2},"geometry":{"type":"Point","coordinates":[-122.8072,47.0264]}},{"type":"Feature","properties":{"name":"Tanglewilde","kind":"city","tier":3},"geometry":{"type":"Point","coordinates":[-122.7815,47.0517]}},{"type":"Feature","properties":{"name":"Tumwater","kind":"city","tier":2},"geometry":{"type":"Point","coordinates":[-122.9104,47.0081]}},{"type":"Feature","properties":{"name":"Artondale","kind":"city","tier":2},"geometry":{"type":"Point","coordinates":[-122.6292,47.3]}},{"type":"Feature","properties":{"name":"Buckley","kind":"city","tier":3},"geometry":{"type":"Point","coordinates":[-122.0277,47.1622]}},{"type":"Feature","properties":{"name":"Carbonado","kind":"city","tier":3},"geometry":{"type":"Point","coordinates":[-122.0514,47.0797]}},{"type":"Feature","properties":{"name":"DuPont","kind":"city","tier":2},"geometry":{"type":"Point","coordinates":[-122.6375,47.0991]}},{"type":"Feature","properties":{"name":"Elk Plain","kind":"city","tier":2},"geometry":{"type":"Point","coordinates":[-122.3668,47.0448]}},{"type":"Feature","properties":{"name":"Fircrest","kind":"city","tier":3},"geometry":{"type":"Point","coordinates":[-122.5143,47.2317]}},{"type":"Feature","properties":{"name":"Alderwood Manor","kind":"city","tier":2},"geometry":{"type":"Point","coordinates":[-122.2586,47.8024]}},{"type":"Feature","properties":{"name":"Arlington","kind":"city","tier":2},"geometry":{"type":"Point","coordinates":[-122.1289,48.1897]}},{"type":"Feature","properties":{"name":"Arlington Heights","kind":"city","tier":3},"geometry":{"type":"Point","coordinates":[-122.053,48.2087]}},{"type":"Feature","properties":{"name":"Bothell","kind":"city","tier":2},"geometry":{"type":"Point","coordinates":[-122.2054,47.7623]}},{"type":"Feature","properties":{"name":"Edmonds","kind":"city","tier":2},"geometry":{"type":"Point","coordinates":[-122.3775,47.8106]}},{"type":"Feature","properties":{"name":"Lynnwood","kind":"city","tier":2},"geometry":{"type":"Point","coordinates":[-122.3054,47.8279]}},{"type":"Feature","properties":{"name":"Cathan","kind":"city","tier":3},"geometry":{"type":"Point","coordinates":[-122.2746,48.1139]}},{"type":"Feature","properties":{"name":"Echo Lake","kind":"city","tier":3},"geometry":{"type":"Point","coordinates":[-122.0475,47.7816]}},{"type":"Feature","properties":{"name":"Esperance","kind":"city","tier":3},"geometry":{"type":"Point","coordinates":[-122.3475,47.795]}},{"type":"Feature","properties":{"name":"John Sam Lake","kind":"city","tier":3},"geometry":{"type":"Point","coordinates":[-122.246,48.1093]}},{"type":"Feature","properties":{"name":"Jordan","kind":"city","tier":3},"geometry":{"type":"Point","coordinates":[-122.0372,48.1457]}},{"type":"Feature","properties":{"name":"Lake Goodwin","kind":"city","tier":3},"geometry":{"type":"Point","coordinates":[-122.2847,48.1425]}},{"type":"Feature","properties":{"name":"Lake Ketchum","kind":"city","tier":3},"geometry":{"type":"Point","coordinates":[-122.3425,48.2848]}},{"type":"Feature","properties":{"name":"Lake Stevens","kind":"city","tier":2},"geometry":{"type":"Point","coordinates":[-122.0661,48.0198]}},{"type":"Feature","properties":{"name":"Lochsloy","kind":"city","tier":3},"geometry":{"type":"Point","coordinates":[-122.0323,48.057]}},{"type":"Feature","properties":{"name":"Machias","kind":"city","tier":3},"geometry":{"type":"Point","coordinates":[-122.0442,47.9825]}},{"type":"Feature","properties":{"name":"Maltby","kind":"city","tier":2},"geometry":{"type":"Point","coordinates":[-122.1145,47.8052]}},{"type":"Feature","properties":{"name":"Marysville","kind":"city","tier":2},"geometry":{"type":"Point","coordinates":[-122.1768,48.0517]}},{"type":"Feature","properties":{"name":"Mountlake Terrace","kind":"city","tier":2},"geometry":{"type":"Point","coordinates":[-122.3066,47.791]}},{"type":"Feature","properties":{"name":"Mukilteo","kind":"city","tier":2},"geometry":{"type":"Point","coordinates":[-122.3037,47.9474]}},{"type":"Feature","properties":{"name":"North Stanwood","kind":"city","tier":3},"geometry":{"type":"Point","coordinates":[-122.3504,48.2562]}},{"type":"Feature","properties":{"name":"Northwest Snohomish","kind":"city","tier":3},"geometry":{"type":"Point","coordinates":[-122.1043,47.9366]}},{"type":"Feature","properties":{"name":"Priest Point","kind":"city","tier":3},"geometry":{"type":"Point","coordinates":[-122.2313,48.0371]}},{"type":"Feature","properties":{"name":"Shaker Church","kind":"city","tier":3},"geometry":{"type":"Point","coordinates":[-122.2465,48.0527]}},{"type":"Feature","properties":{"name":"Silvana","kind":"city","tier":3},"geometry":{"type":"Point","coordinates":[-122.2553,48.2023]}},{"type":"Feature","properties":{"name":"Snohomish","kind":"city","tier":2},"geometry":{"type":"Point","coordinates":[-122.0955,47.9114]}},{"type":"Feature","properties":{"name":"Stimson Crossing","kind":"city","tier":3},"geometry":{"type":"Point","coordinates":[-122.208,48.1077]}},{"type":"Feature","properties":{"name":"Tulalip Bay","kind":"city","tier":3},"geometry":{"type":"Point","coordinates":[-122.2869,48.0656]}},{"type":"Feature","properties":{"name":"Warm Beach","kind":"city","tier":3},"geometry":{"type":"Point","coordinates":[-122.3535,48.1599]}},{"type":"Feature","properties":{"name":"Weallup Lake","kind":"city","tier":3},"geometry":{"type":"Point","coordinates":[-122.3146,48.1153]}},{"type":"Feature","properties":{"name":"Woodway","kind":"city","tier":3},"geometry":{"type":"Point","coordinates":[-122.3824,47.79]}},{"type":"Feature","properties":{"name":"Silver Firs","kind":"city","tier":2},"geometry":{"type":"Point","coordinates":[-122.1503,47.8703]}},{"type":"Feature","properties":{"name":"Anacortes","kind":"city","tier":2},"geometry":{"type":"Point","coordinates":[-122.6126,48.5168]}},{"type":"Feature","properties":{"name":"Lyman","kind":"city","tier":3},"geometry":{"type":"Point","coordinates":[-122.0609,48.5252]}},{"type":"Feature","properties":{"name":"Mount Vernon","kind":"city","tier":2},"geometry":{"type":"Point","coordinates":[-122.3264,48.42]}},{"type":"Feature","properties":{"name":"Sedro-Woolley","kind":"city","tier":2},"geometry":{"type":"Point","coordinates":[-122.2351,48.505]}},{"type":"Feature","properties":{"name":"Lynden","kind":"city","tier":2},"geometry":{"type":"Point","coordinates":[-122.4569,48.9466]}},{"type":"Feature","properties":{"name":"Ferndale","kind":"city","tier":2},"geometry":{"type":"Point","coordinates":[-122.5897,48.8467]}},{"type":"Feature","properties":{"name":"Blaine","kind":"city","tier":3},"geometry":{"type":"Point","coordinates":[-122.7436,48.9881]}},{"type":"Feature","properties":{"name":"Vashon","kind":"city","tier":2},"geometry":{"type":"Point","coordinates":[-122.4607,47.448]}},{"type":"Feature","properties":{"name":"Forks","kind":"city","tier":2},"geometry":{"type":"Point","coordinates":[-124.3862,47.9502]}},{"type":"Feature","properties":{"name":"Langley","kind":"city","tier":2},"geometry":{"type":"Point","coordinates":[-122.4094,48.04]}},{"type":"Feature","properties":{"name":"Bryant","kind":"city","tier":3},"geometry":{"type":"Point","coordinates":[-122.1579,48.239]}},{"type":"Feature","properties":{"name":"South Prairie","kind":"city","tier":3},"geometry":{"type":"Point","coordinates":[-122.0982,47.1393]}},{"type":"Feature","properties":{"name":"Burien","kind":"city","tier":2},"geometry":{"type":"Point","coordinates":[-122.3485,47.4699]}},{"type":"Feature","properties":{"name":"University Place","kind":"city","tier":2},"geometry":{"type":"Point","coordinates":[-122.5371,47.2258]}},{"type":"Feature","properties":{"name":"Elma","kind":"city","tier":3},"geometry":{"type":"Point","coordinates":[-123.4088,47.0034]}},{"type":"Feature","properties":{"name":"Carlsborg","kind":"city","tier":3},"geometry":{"type":"Point","coordinates":[-123.1709,48.0905]}},{"type":"Feature","properties":{"name":"Guemes","kind":"city","tier":3},"geometry":{"type":"Point","coordinates":[-122.6249,48.5301]}},{"type":"Feature","properties":{"name":"Black Diamond","kind":"city","tier":3},"geometry":{"type":"Point","coordinates":[-122.0038,47.3083]}},{"type":"Feature","properties":{"name":"Sudden Valley","kind":"city","tier":3},"geometry":{"type":"Point","coordinates":[-122.3466,48.7229]}},{"type":"Feature","properties":{"name":"McCleary","kind":"city","tier":3},"geometry":{"type":"Point","coordinates":[-123.2654,47.0532]}},{"type":"Feature","properties":{"name":"Roy","kind":"city","tier":3},"geometry":{"type":"Point","coordinates":[-122.5398,47.0043]}},{"type":"Feature","properties":{"name":"Hansville","kind":"city","tier":3},"geometry":{"type":"Point","coordinates":[-122.5543,47.9187]}},{"type":"Feature","properties":{"name":"Yarrow Point","kind":"city","tier":3},"geometry":{"type":"Point","coordinates":[-122.2173,47.6462]}},{"type":"Feature","properties":{"name":"White Center","kind":"city","tier":2},"geometry":{"type":"Point","coordinates":[-122.3557,47.5164]}},{"type":"Feature","properties":{"name":"Orting","kind":"city","tier":3},"geometry":{"type":"Point","coordinates":[-122.2043,47.0979]}},{"type":"Feature","properties":{"name":"Maple Falls","kind":"city","tier":3},"geometry":{"type":"Point","coordinates":[-122.0773,48.9242]}},{"type":"Feature","properties":{"name":"Pacific Beach","kind":"city","tier":3},"geometry":{"type":"Point","coordinates":[-124.2004,47.2091]}},{"type":"Feature","properties":{"name":"Port Gamble","kind":"city","tier":3},"geometry":{"type":"Point","coordinates":[-122.5838,47.8543]}},{"type":"Feature","properties":{"name":"Coupeville","kind":"city","tier":2},"geometry":{"type":"Point","coordinates":[-122.6858,48.2182]}},{"type":"Feature","properties":{"name":"Edison","kind":"city","tier":3},"geometry":{"type":"Point","coordinates":[-122.4438,48.5623]}},{"type":"Feature","properties":{"name":"Copalis Beach","kind":"city","tier":3},"geometry":{"type":"Point","coordinates":[-124.1738,47.1126]}},{"type":"Feature","properties":{"name":"Point Roberts","kind":"city","tier":3},"geometry":{"type":"Point","coordinates":[-123.0678,48.9847]}},{"type":"Feature","properties":{"name":"Wa'atch","kind":"city","tier":3},"geometry":{"type":"Point","coordinates":[-124.6714,48.3474]}},{"type":"Feature","properties":{"name":"Pacific","kind":"city","tier":3},"geometry":{"type":"Point","coordinates":[-122.2485,47.264]}},{"type":"Feature","properties":{"name":"Des Moines","kind":"city","tier":2},"geometry":{"type":"Point","coordinates":[-122.3099,47.3988]}},{"type":"Feature","properties":{"name":"Prairie Ridge","kind":"city","tier":2},"geometry":{"type":"Point","coordinates":[-122.1487,47.1376]}},{"type":"Feature","properties":{"name":"Hoodsport","kind":"city","tier":3},"geometry":{"type":"Point","coordinates":[-123.1412,47.406]}},{"type":"Feature","properties":{"name":"Oak Harbor","kind":"city","tier":2},"geometry":{"type":"Point","coordinates":[-122.6432,48.2932]}},{"type":"Feature","properties":{"name":"Browns Point","kind":"city","tier":3},